,name,Latitude,Longitude,free_bikes,Id,Name,Category,Distance,Address,review_count,rating
0,Cours Jean Ballard,43.29300892,5.374584208,0.0,,,bike station,,,,
1,Allées Gambetta,43.29902797,5.381509226,0.0,,,bike station,,,,
2,Réformés Canebière,43.29971664630074,5.384845163546515,2.0,,,bike station,,,,
3,Coutellerie,43.29679958,5.372909688,1.0,,,bike station,,,,
4,Canebiere - Beauvau,43.29527892,5.375048465,0.0,,,bike station,,,,
5,Colbert Ste Barbe,43.299242645590766,5.374807305735999,3.0,,,bike station,,,,
6,Centre Bourse,43.29693502454282,5.376544207099414,1.0,,,bike station,,,,
7,Saint-Ferréol - Davso,43.29360042,5.378349882,1.0,,,bike station,,,,
8,Flammarion - Isoard,43.3042781513621,5.388867929313619,1.0,,,bike station,,,,
9,Longchamp - Grobet,43.30299233959067,5.39213628647542,1.0,,,bike station,,,,
10,Vallon de l’Oriol,43.27617976729073,5.361008732708797,0.0,,,bike station,,,,
11,Grand Rue,43.29777432269154,5.370874697052955,0.0,,,bike station,,,,
12,Quai du Port,43.29573017,5.367354992,7.0,,,bike station,,,,
13,Place de Lenche,43.29716293,5.365865775,5.0,,,bike station,,,,
14,Place aux huiles,43.293258515940494,5.371585560104336,0.0,,,bike station,,,,
15,Canebiere Reine Elisabeth,43.29574849,5.375219826,0.0,,,bike station,,,,
16,La Major,43.29920885202967,5.365546894429258,2.0,,,bike station,,,,
17,MUCEM,43.29843273,5.362774233,5.0,,,bike station,,,,
18,Sainte - Lulli,43.29266329418829,5.376388862887325,1.0,,,bike station,,,,
19,Académie - Capucins,43.29601993155862,5.381084217359557,0.0,,,bike station,,,,
20,Canebière - Dugommier,43.29803718,5.381065715,9.0,,,bike station,,,,
21,Paris - Forbin,43.30598899,5.372249573,1.0,,,bike station,,,,
22,Sibie - Curiol,43.29528961,5.385580554,0.0,,,bike station,,,,
23,Euromediterrannee Gantes,43.30907565,5.368464875,11.0,,,bike station,,,,
24,Arenc - Chanterac,43.31223933,5.368561815,5.0,,,bike station,,,,
25,Tour La Marseillaise,43.31339141270814,5.367060274332289,10.0,,,bike station,,,,
26,Schuman - Leca,43.30193874,5.366285878,2.0,,,bike station,,,,
27,Ferry-Nédelec,43.30278357,5.377157667,7.0,,,bike station,,,,
28,Joliette - Dunkerque,43.30536824089319,5.367343057645485,8.0,,,bike station,,,,
29,Les Docks - Terrasses du Port,43.30570589746745,5.365654336110538,14.0,,,bike station,,,,
30,Saint Charles - Faculté,43.30460633,5.379025685,6.0,,,bike station,,,,
31,Hôpital Européen,43.30903370006192,5.371782666402396,0.0,,,bike station,,,,
32,National - Hoche,43.3111250012872,5.377624232911899,0.0,,,bike station,,,,
33,National Métro,43.31481127254133,5.37310339134342,1.0,,,bike station,,,,
34,Place Cadenat,43.3117222,5.387246838,3.0,,,bike station,,,,
35,Friche Belle de Mai,43.30958896,5.390258304,5.0,,,bike station,,,,
36,Cinq Avenue Longchamp,43.30427414673173,5.397513231939001,0.0,,,bike station,,,,
37,Chute Lavie Dahdah,43.30903759621901,5.396545511971453,0.0,,,bike station,,,,
38,Blancarde - Duparc,43.30275907,5.400792795,0.0,,,bike station,,,,
39,Chutes Lavie - Guigou,43.31329084715776,5.396838371330546,0.0,,,bike station,,,,
40,Eglise des Chartreux,43.30937085,5.401449029,0.0,,,bike station,,,,
41,Saint-Just - Le Dôme,43.31652283667526,5.40436656786892,1.0,,,bike station,,,,
42,Hôtel de ville,43.29613110303592,5.370772717518662,0.0,,,bike station,,,,
43,Canebière Saint-Ferreol,43.29626342443967,5.377094272796853,0.0,,,bike station,,,,
44,Jules Guesde,43.30142931593264,5.374129631885239,8.0,,,bike station,,,,
45,Notre-Dame - Dragon,43.2869613,5.373784575,0.0,,,bike station,,,,
46,Plaine - Saint-Pierre,43.29416247655675,5.386291983910837,2.0,,,bike station,,,,
47,Notre-Dame - Vauban,43.28399833,5.375062072,0.0,,,bike station,,,,
48,Tivoli - Roosevelt,43.29876369,5.3889733920000005,0.0,,,bike station,,,,
49,National - Belle de Mai,43.3080124,5.38151142,3.0,,,bike station,,,,
50,Baille - Friedland,43.28659467,5.386795143,0.0,,,bike station,,,,
51,Liberation - Isoard,43.30084993931786,5.390856183778169,0.0,,,bike station,,,,
52,Saint-Pierre - Hugueny,43.291994145747765,5.392906782557929,1.0,,,bike station,,,,
53,Rouet,43.28350153,5.386470818,0.0,,,bike station,,,,
54,Libération - Chape - Espérandieu,43.30200819,5.394693835,1.0,,,bike station,,,,
55,Flammarion- Montricher,43.3059935,5.393687137,1.0,,,bike station,,,,
56,Place Sébastopol,43.29868093,5.397225175,2.0,,,bike station,,,,
57,Toulon - Menpenti,43.28446199,5.39212117,4.0,,,bike station,,,,
58,Place Placide Caffo,43.3135706,5.3848289,5.0,,,bike station,,,,
59,Briffaut Camas,43.29431413,5.397498439,0.0,,,bike station,,,,
60,Belle vue,43.31528908746356,5.38034926547175,0.0,,,bike station,,,,
61,Baille - Hôpital Conception,43.28936349,5.396322259,0.0,,,bike station,,,,
62,Pierre Roux,43.28572971621563,5.394991516440086,0.0,,,bike station,,,,
63,Auphan - Vaillant,43.31707549,5.377366738,3.0,,,bike station,,,,
64,Foch - Fayolle,43.30111738,5.398795435,0.0,,,bike station,,,,
65,Chave - Sakakini,43.29571281,5.399639378,2.0,,,bike station,,,,
66,Jean Moulin - Hôpital La Timone,43.29041224963351,5.399632919528813,5.0,,,bike station,,,,
67,Sakakini - Saint-Pierre,43.29272355,5.401130777,0.0,,,bike station,,,,
68,Jean Moulin - Sainte Baume,43.28715402,5.39997873,0.0,,,bike station,,,,
69,Duparc - Brossolette,43.30641234314123,5.40103548654406,3.0,,,bike station,,,,
70,Bon Secours - Huilerie,43.319935427116775,5.381699103765641,0.0,,,bike station,,,,
71,Reboul - Argile,43.28078426,5.396621812,0.0,,,bike station,,,,
72,Sainte-Marthe - Glacière,43.31755747,5.390173087,2.0,,,bike station,,,,
73,Blancarde - Gare SNCF,43.29626348,5.406009668,1.0,,,bike station,,,,
74,Place Pol Lapeyre,43.2925709464964,5.40910662501517,2.0,,,bike station,,,,
75,Sainte-Marthe - Moretti,43.32366978,5.38883641,2.0,,,bike station,,,,
76,Saint-Barnabé - Haguenau,43.30418846,5.412903941,1.0,,,bike station,,,,
77,Place Caire,43.30383732,5.41872428,1.0,,,bike station,,,,
78,Pierre Paraf,43.33044176,5.38914807,1.0,,,bike station,,,,
79,Augustin Aubert,43.26795854639917,5.402685214151916,2.0,,,bike station,,,,
80,Parc Corot,43.32346361240647,5.406297409546596,0.0,,,bike station,,,,
81,Pont de Vivaux,43.2799602511721,5.416624366102042,2.0,,,bike station,,,,
82,La Boiseraie,43.29552256279197,5.422926314883398,3.0,,,bike station,,,,
83,Malpassé Métro,43.32004537625261,5.4150457738032864,10.0,,,bike station,,,,
84,La Fourragère,43.30409626543968,5.425385468108061,0.0,,,bike station,,,,
85,Saint-Paul - Malpassé,43.32660541953149,5.409903287927591,0.0,,,bike station,,,,
86,Bois Luzy,43.31078482,5.42430547,3.0,,,bike station,,,,
87,Lavéran - Diderot,43.3252329242701,5.4143178006645485,2.0,,,bike station,,,,
88,Montolivet,43.31712055,5.423936023,0.0,,,bike station,,,,
89,Saint-Jean du Désert,43.29876838180914,5.436430475000634,0.0,,,bike station,,,,
90,Faculté - Saint-Jerôme,43.33611966260352,5.410320835259142,8.0,,,bike station,,,,
91,Stade Bombardière,43.31710365325108,5.43681784487967,0.0,,,bike station,,,,
92,La Criée,43.29274852206981,5.368401671786842,0.0,,,bike station,,,,
93,Sainte - Notre-Dame,43.291674744737406,5.371582564461846,0.0,,,bike station,,,,
94,Place de la Corderie,43.29077871,5.371481915,4.0,,,bike station,,,,
95,République Joliette,43.30304044330242,5.368986802595486,5.0,,,bike station,,,,
96,Pierre Puget - Breteuil,43.29032689986855,5.375711092245979,4.0,,,bike station,,,,
97,Endoume - Corderie,43.28918361,5.366407727,9.0,,,bike station,,,,
98,Estrangin,43.28974291012639,5.378303806996655,2.0,,,bike station,,,,
99,Pasteur,43.29063067145421,5.359243592567395,2.0,,,bike station,,,,
100,Livon - Pasteur,43.29199367364626,5.357886145002112,0.0,,,bike station,,,,
101,Rome - Salvator,43.29099525,5.381360991,0.0,,,bike station,,,,
102,Rome Sylvabelle,43.29009961628429,5.38126895201026,0.0,,,bike station,,,,
103,Vallon Jourdan,43.28659309973765,5.363346223953386,0.0,,,bike station,,,,
104,Place du 4 Septembre,43.28856007,5.358371494,0.0,,,bike station,,,,
105,Paradis - Vignerons,43.28718443103384,5.379370104893951,2.0,,,bike station,,,,
106,Plage des Catalans,43.29010343949329,5.356114229700495,3.0,,,bike station,,,,
107,Chave Eugene Pierre,43.29516935,5.390426195,0.0,,,bike station,,,,
108,Paradis - Escat,43.283497890652455,5.380948347618755,2.0,,,bike station,,,,
109,Castellane,43.28479294027045,5.384113381462271,0.0,,,bike station,,,,
110,Place du Terrail,43.28039012260388,5.369296566841854,0.0,,,bike station,,,,
111,Vallon Montebello,43.28104431,5.378308143,2.0,,,bike station,,,,
112,Camas - Jaubert,43.29781526590139,5.393547700948375,0.0,,,bike station,,,,
113,Vallon des Auffes,43.285848320041225,5.350786907401925,1.0,,,bike station,,,,
114,Baille - Vertus,43.28850105474712,5.393086808343014,0.0,,,bike station,,,,
115,Corniche - Malmousque,43.2842190593168,5.349699767931042,2.0,,,bike station,,,,
116,Corniche - Endoume,43.28274440346115,5.35053287799019,4.0,,,bike station,,,,
117,Paradis - Lord Duveen,43.27562456,5.384392134,1.0,,,bike station,,,,
118,Plage du Prophète,43.2736131125202,5.362704849368924,3.0,,,bike station,,,,
119,Prado - Lord Duveen,43.27676858722245,5.388786515806714,0.0,,,bike station,,,,
120,Liandier - Rouet,43.278398597227664,5.392138782316124,0.0,,,bike station,,,,
121,Prado - Paradis,43.26946672,5.386439042,3.0,,,bike station,,,,
122,Negresko - Paulet,43.26931867,5.389396978,1.0,,,bike station,,,,
123,Louis Armand,43.29957938303167,5.413255322900113,0.0,,,bike station,,,,
124,Huveaune - Curtel,43.27812844,5.407194838,1.0,,,bike station,,,,
125,Huveaune - Borely,43.26201967835499,5.3792991458357164,0.0,,,bike station,,,,
126,Rolland - Platanes,43.27138756896159,5.40926929141915,3.0,,,bike station,,,,
127,Clot Bey - Leau,43.25575639,5.38230303,3.0,,,bike station,,,,
128,Escale Borély,43.25494658454127,5.3764543491352015,3.0,,,bike station,,,,
129,Mazargues - Saint Anne,43.258223500058506,5.394368605955606,0.0,,,bike station,,,,
130,Boulevard Urbain Sud - Verdillon,43.27502818,5.424533793,8.0,,,bike station,,,,
131,Boulevard urbain sud - François Mauriac,43.27072082477898,5.422763624666231,3.0,,,bike station,,,,
132,Mazargues - Almeras,43.25096566135139,5.395186297530245,2.0,,,bike station,,,,
133,Lapin Blanc,43.24693037,5.38209613,3.0,,,bike station,,,,
134,Plage de la Pointe Rouge,43.24388423106348,5.370736380062908,2.0,,,bike station,,,,
135,Lancier - Savary,43.24558129772871,5.395069220467349,1.0,,,bike station,,,,
136,Corail - Marseilleveyre,43.24062346787065,5.377642413176545,13.0,,,bike station,,,,
137,Parc Pastré,43.23958841257124,5.366238242702252,0.0,,,bike station,,,,
138,Roy d'Espagne - Floralia,43.24178222403938,5.397261332914354,2.0,,,bike station,,,,
139,Madrague de Montredon,43.231922566975584,5.355545384096217,4.0,,,bike station,,,,
140,Luminy - Parc National des Calanques,43.23156159,5.436933396,15.0,,,bike station,,,,
141,Char Jeanne d'Arc - Notre Dame de La Garde,43.286038666099785,5.370678521004038,0.0,,,bike station,,,,
142,Cours Julien - Frères Barthelemy,43.29264247456925,5.384253993651782,2.0,,,bike station,,,,
143,National - Guibal,43.30536406,5.384119039,0.0,,,bike station,,,,
144,Saint-Eugène,43.28453826179185,5.358657022621628,2.0,,,bike station,,,,
145,Chave - Goudard,43.295196228553976,5.393969861741993,0.0,,,bike station,,,,
146,Périer - Cremieux,43.2790871519652,5.380114290305642,4.0,,,bike station,,,,
147,Prado - Périer,43.27974223,5.387440377,0.0,,,bike station,,,,
148,Prado - Gabes,43.2668101,5.382693941,14.0,,,bike station,,,,
149,Gèze,43.3283706355171,5.366912086186176,0.0,,,bike station,,,,
150,Mazargues - Huveaune,43.265570946669925,5.390032250158811,1.0,,,bike station,,,,
151,Mendès France Huveaune,43.260224964054686,5.375454850246569,2.0,,,bike station,,,,
152,318 Mazargues,43.26069975,5.393983394,0.0,,,bike station,,,,
153,Hambourg Rond Point Guerre,43.25002314043684,5.389189832781312,1.0,,,bike station,,,,
154,Vieille Chapelle,43.2479001,5.374457344,2.0,,,bike station,,,,
155,Zenatti - Malrieu,43.24646666954729,5.388984457266133,2.0,,,bike station,,,,
156,Capelette - Forges,43.27946481,5.410561214,1.0,,,bike station,,,,
157,Place Dalmas,43.32287191,5.382756282,0.0,,,bike station,,,,
158,Rabateau - Hôpital Saint-Joseph,43.27410312139213,5.394016006213974,1.0,,,bike station,,,,
159,Sormiou,43.23179293755999,5.400044027608033,2.0,,,bike station,,,,
160,Livon - Vieux-Port,43.2923113,5.360730586,1.0,,,bike station,,,,
161,Perrin - Le Moulin,43.31917923,5.407725382,0.0,,,bike station,,,,
162,Strasbourg - Leca,43.30794517,5.376487141,0.0,,,bike station,,,,
163,Saint-Just - Labry,43.31260893,5.401662431,0.0,,,bike station,,,,
164,Peupliers - Berthelot,43.3371680327555,5.391824847426392,2.0,,,bike station,,,,
165,IUT Saint Jérôme,43.34080437,5.41021883,3.0,,,bike station,,,,
166,Sadi-Carnot,43.29972361,5.371828908,2.0,,,bike station,,,,
167,Hôpital Sainte-Marguerite,43.25900934682247,5.409290356125894,4.0,,,bike station,,,,
168,Foch - Boisson,43.297946098534624,5.404062681086202,0.0,,,bike station,,,,
169,Sainte Marguerite Schloesing,43.26949,5.40262,2.0,,,bike station,,,,
170,Promenade Pompidou David,43.26178214,5.374514856,0.0,,,bike station,,,,
171,Base Nautique Roucas Blanc,43.26571391,5.372890521,0.0,,,bike station,,,,
172,Tobelem - Crinias,43.28727,5.36078,1.0,,,bike station,,,,
173,Boulevard Urbain Sud - Pont de Vivaux,43.28154806631724,5.426429873252573,5.0,,,bike station,,,,
174,Lieutaud - Berlioz,43.2893069,5.38406028,0.0,,,bike station,,,,
175,Corse - Saint Maurice,43.28946766,5.363719459,1.0,,,bike station,,,,
176,Beaumont,43.30805059284097,5.43527038728962,0.0,,,bike station,,,,
177,Palais Omnisports,43.27995154116266,5.400084718244955,1.0,,,bike station,,,,
178,Rond Point du Prado,43.27312918982443,5.390725360406577,0.0,,,bike station,,,,
179,Prado - Michelet,43.27211634133852,5.391746867406027,1.0,,,bike station,,,,
180,Michelet - Huveaune,43.26796562,5.393976415,2.0,,,bike station,,,,
181,Cité Radieuse,43.26091237294747,5.3975844325293565,0.0,,,bike station,,,,
182,Michelet - Luce,43.25865839,5.398934653,2.0,,,bike station,,,,
183,Obélisque de Mazargues,43.25102036834343,5.403214047900747,2.0,,,bike station,,,,
184,Allar,43.32477130443621,5.365569501866162,1.0,,,bike station,,,,
185,La Gaye,43.257079,5.411051253,0.0,,,bike station,,,,
186,,43.2929841010118,5.37450481206179,,Z_ezFqDSgos1VLmHdePBqg,Shanghai Kitchen,"[{'alias': 'shanghainese', 'title': 'Shanghainese'}]",6.0,14 cours Jean Ballard,10.0,5.0
187,,43.2926558819198,5.37180240555722,,gMbdTQCBPjp7mDfWJehHmQ,Le Bon Burger,"[{'alias': 'burgers', 'title': 'Burgers'}, {'alias': 'tradamerican', 'title': 'American'}]",228.0,24 place aux Huiles,36.0,4.5
188,,43.295589,5.379063,,EfMabFwgjmWoUibT1DMMzw,Sauveur,"[{'alias': 'pizza', 'title': 'Pizza'}]",462.0,10 rue d'Aubagne,132.0,4.5
189,,43.29283,5.372,,rCGAq1AU-l9YzIXQnU02Fw,César Place,"[{'alias': 'modern_european', 'title': 'Modern European'}, {'alias': 'french', 'title': 'French'}, {'alias': 'farmersmarket', 'title': 'Farmers Market'}, {'alias': 'mediterranean', 'title': 'Mediterranean'}]",199.0,21 place aux Huiles,131.0,4.0
190,,43.29287,5.37178,,ApiCSbuCSLk61vDLr2DV-g,Le Bouchon Provençal,"[{'alias': 'restaurants', 'title': 'Restaurants'}]",227.0,6 place aux Huiles,39.0,4.0
191,,43.291975,5.37325,,J1swRC87LWZueCuX_I7CXQ,La Poule Noire,"[{'alias': 'french', 'title': 'French'}]",157.0,61 rue Sainte,43.0,4.0
192,,43.29253,5.37558,,Jpa7n24xU5h_UTOkbQGyJg,Le Grand Latin,"[{'alias': 'italian', 'title': 'Italian'}]",104.0,27 rue Sainte,179.0,4.0
193,,43.29274,5.37134,,Pvzn2DLyJgUWwU6X54zHZw,La Table du Fort,"[{'alias': 'french', 'title': 'French'}]",264.0,8 rue Fort Notre Dame,58.0,4.5
194,,43.293307,5.375469,,uLqZhed6FOI-Yxmdi-W2tA,Le Petit Flore,"[{'alias': 'mediterranean', 'title': 'Mediterranean'}, {'alias': 'french', 'title': 'French'}]",78.0,14 rue Corneille,24.0,5.0
195,,43.29286,5.37251,,4glviVKuSbiEffhkCmAlXw,Le Kashmir,"[{'alias': 'pakistani', 'title': 'Pakistani'}, {'alias': 'indpak', 'title': 'Indian'}]",175.0,18 rue de la Paix,65.0,4.0
196,,43.295589,5.379063,,EfMabFwgjmWoUibT1DMMzw,Sauveur,"[{'alias': 'pizza', 'title': 'Pizza'}]",430.0,10 rue d'Aubagne,132.0,4.5
197,,43.2972899,5.38546,,wwcX2d_9rQmz9OzUQEVFHw,Le Cercle Rouge,"[{'alias': 'tapas', 'title': 'Tapas Bars'}, {'alias': 'corsican', 'title': 'Corsican'}, {'alias': 'cocktailbars', 'title': 'Cocktail Bars'}]",374.0,41 rue Adolphe Thiers,65.0,4.5
198,,43.300773,5.38212,,ZAHTxYqDTbORoZ6I7G9aGw,La Manne,"[{'alias': 'french', 'title': 'French'}, {'alias': 'mediterranean', 'title': 'Mediterranean'}]",200.0,18 boulevard de la Liberté,12.0,4.5
199,,43.296302648832,5.37139641627038,,B9EDlS5y7zaHUVRFTE5PeA,La Caravelle,"[{'alias': 'bars', 'title': 'Bars'}, {'alias': 'provencal', 'title': 'Provencal'}]",872.0,34 quai du Port,262.0,4.0
200,,43.29869,5.38089,,7OGAxOPxyio9ti53owZYwA,Le Comptoir Dugommier,"[{'alias': 'brasseries', 'title': 'Brasseries'}]",62.0,14 bd Dugommier,24.0,4.0
201,,43.29952,5.37744,,nrxYjkyHSklYcUv4VaNnfg,Le Grain de Sable,"[{'alias': 'vegetarian', 'title': 'Vegetarian'}, {'alias': 'french', 'title': 'French'}]",333.0,34 Rue Baignoir,47.0,4.5
202,,43.29863,5.38076,,tYVRvl-U-lhYSRsfyLcFSQ,Ghomrassen,"[{'alias': 'moroccan', 'title': 'Moroccan'}]",76.0,21 bd Dugommier,10.0,4.5
203,,43.29424,5.384759,,qzI9sQ6vToMDi_RGk9W13w,Ummagumma,"[{'alias': 'french', 'title': 'French'}, {'alias': 'tapasmallplates', 'title': 'Tapas/Small Plates'}]",593.0,26 rue des Trois Rois,78.0,4.5
204,,43.29734,5.38244,,rtGYloRQLta1hEiKHfIOFA,Burger and Coffee,"[{'alias': 'burgers', 'title': 'Burgers'}, {'alias': 'bagels', 'title': 'Bagels'}]",203.0,11 rue Théâtre Français,41.0,3.5
205,,43.3009903,5.3881795,,dgIFNUTyd6ZbWGyTJFyAnQ,La Cantine de Nour d'Egypte,"[{'alias': 'egyptian', 'title': 'Egyptian'}]",582.0,10 rue Bernex,23.0,4.5
206,,43.2972899,5.38546,,wwcX2d_9rQmz9OzUQEVFHw,Le Cercle Rouge,"[{'alias': 'tapas', 'title': 'Tapas Bars'}, {'alias': 'corsican', 'title': 'Corsican'}, {'alias': 'cocktailbars', 'title': 'Cocktail Bars'}]",273.0,41 rue Adolphe Thiers,65.0,4.5
207,,43.3009903,5.3881795,,dgIFNUTyd6ZbWGyTJFyAnQ,La Cantine de Nour d'Egypte,"[{'alias': 'egyptian', 'title': 'Egyptian'}]",304.0,10 rue Bernex,23.0,4.5
208,,43.295589,5.379063,,EfMabFwgjmWoUibT1DMMzw,Sauveur,"[{'alias': 'pizza', 'title': 'Pizza'}]",655.0,10 rue d'Aubagne,132.0,4.5
209,,43.29925,5.38618,,tpeRKLNE9Vn5EtihtKEMqQ,La Boîte à Sardine,"[{'alias': 'seafood', 'title': 'Seafood'}]",122.0,2 boulevard de la Libération,39.0,4.0
210,,43.300773,5.38212,,ZAHTxYqDTbORoZ6I7G9aGw,La Manne,"[{'alias': 'french', 'title': 'French'}, {'alias': 'mediterranean', 'title': 'Mediterranean'}]",249.0,18 boulevard de la Liberté,12.0,4.5
211,,43.29897,5.38744,,bwGTTdYVUR1B69pod45UCw,Chez Simone,"[{'alias': 'french', 'title': 'French'}]",225.0,23 cours Franklin Roosevelt,12.0,4.5
212,,43.29424,5.384759,,qzI9sQ6vToMDi_RGk9W13w,Ummagumma,"[{'alias': 'french', 'title': 'French'}, {'alias': 'tapasmallplates', 'title': 'Tapas/Small Plates'}]",609.0,26 rue des Trois Rois,78.0,4.5
213,,43.29734,5.38244,,rtGYloRQLta1hEiKHfIOFA,Burger and Coffee,"[{'alias': 'burgers', 'title': 'Burgers'}, {'alias': 'bagels', 'title': 'Bagels'}]",316.0,11 rue Théâtre Français,41.0,3.5
214,,43.2917571,5.3842254,,KgYoPVXM50ZRhWeDl4mlMA,Le Corto,"[{'alias': 'tapasmallplates', 'title': 'Tapas/Small Plates'}, {'alias': 'french', 'title': 'French'}, {'alias': 'mediterranean', 'title': 'Mediterranean'}]",886.0,24 place Notre-Dame du Mont,65.0,4.5
215,,43.29443,5.38383,,4q-slQPktkv3bVPV4qrATg,Café Vian,"[{'alias': 'wine_bars', 'title': 'Wine Bars'}, {'alias': 'provencal', 'title': 'Provencal'}, {'alias': 'bbq', 'title': 'Barbeque'}]",597.0,12 rue Vian,119.0,4.5
216,,43.296302648832,5.37139641627038,,B9EDlS5y7zaHUVRFTE5PeA,La Caravelle,"[{'alias': 'bars', 'title': 'Bars'}, {'alias': 'provencal', 'title': 'Provencal'}]",134.0,34 quai du Port,262.0,4.0
217,,43.295589,5.379063,,EfMabFwgjmWoUibT1DMMzw,Sauveur,"[{'alias': 'pizza', 'title': 'Pizza'}]",515.0,10 rue d'Aubagne,132.0,4.5
218,,43.2965,5.373197,,m5ERA2E2b07Dm5DSwj_cKA,Miramar,"[{'alias': 'seafood', 'title': 'Seafood'}]",40.0,12 quai du Port,143.0,3.5
219,,43.2977099227985,5.36929702883606,,_HmsDLwMLKrbmndlNQ7ZoQ,Vinonéo,"[{'alias': 'french', 'title': 'French'}, {'alias': 'wine_bars', 'title': 'Wine Bars'}, {'alias': 'mediterranean', 'title': 'Mediterranean'}]",309.0,6 place Daviel,56.0,4.5
220,,43.296557,5.373062,,dcG-CXh6Gdi7kxRp472uiQ,L'Hippocampe,"[{'alias': 'seafood', 'title': 'Seafood'}, {'alias': 'mediterranean', 'title': 'Mediterranean'}]",29.0,14 quai du Port,13.0,4.0
221,,43.2963958166187,5.37366704830174,,CSFc59c3-zGbD-cwFa1pSA,Une Table au Sud,"[{'alias': 'mediterranean', 'title': 'Mediterranean'}]",75.0,1 Rue République,48.0,4.0
222,,43.2969,5.37363,,i1aD9BdALxnbeacX1j3Utw,Déjeuner en Ville,"[{'alias': 'bistros', 'title': 'Bistros'}]",59.0,5 rue de la République,21.0,4.5
223,,43.296495,5.3742438,,DEHMfZxRq9HXrLx1GEnGfg,La Kahena,"[{'alias': 'arabian', 'title': 'Arabic'}, {'alias': 'mediterranean', 'title': 'Mediterranean'}]",113.0,2 rue de la République,68.0,3.5
224,,43.29621,5.37132,,tpya1qrNPfCnSDFE53A6sQ,Le Bocal,"[{'alias': 'french', 'title': 'French'}]",144.0,58 Quai Du Port,23.0,4.0
225,,43.29689,5.36919,,FHHCjx0O5Gq0udJS1reGcA,Le Café des Épices,"[{'alias': 'french', 'title': 'French'}]",304.0,4 rue du Lacydon,112.0,3.5
226,,43.295589,5.379063,,EfMabFwgjmWoUibT1DMMzw,Sauveur,"[{'alias': 'pizza', 'title': 'Pizza'}]",326.0,10 rue d'Aubagne,132.0,4.5
227,,43.296302648832,5.37139641627038,,B9EDlS5y7zaHUVRFTE5PeA,La Caravelle,"[{'alias': 'bars', 'title': 'Bars'}, {'alias': 'provencal', 'title': 'Provencal'}]",316.0,34 quai du Port,262.0,4.0
228,,43.2965,5.373197,,m5ERA2E2b07Dm5DSwj_cKA,Miramar,"[{'alias': 'seafood', 'title': 'Seafood'}]",202.0,12 quai du Port,143.0,3.5
229,,43.293307,5.375469,,uLqZhed6FOI-Yxmdi-W2tA,Le Petit Flore,"[{'alias': 'mediterranean', 'title': 'Mediterranean'}, {'alias': 'french', 'title': 'French'}]",221.0,14 rue Corneille,24.0,5.0
230,,43.2963958166187,5.37366704830174,,CSFc59c3-zGbD-cwFa1pSA,Une Table au Sud,"[{'alias': 'mediterranean', 'title': 'Mediterranean'}]",167.0,1 Rue République,48.0,4.0
231,,43.293379,5.375462,,VO2Gk3YV0vMLEkc3jg0_BA,Grumpy Cakes,"[{'alias': 'tea', 'title': 'Tea Rooms'}, {'alias': 'desserts', 'title': 'Desserts'}, {'alias': 'salad', 'title': 'Salad'}]",213.0,12 rue Corneille,35.0,4.5
232,,43.296495,5.3742438,,DEHMfZxRq9HXrLx1GEnGfg,La Kahena,"[{'alias': 'arabian', 'title': 'Arabic'}, {'alias': 'mediterranean', 'title': 'Mediterranean'}]",150.0,2 rue de la République,68.0,3.5
233,,43.2926558819198,5.37180240555722,,gMbdTQCBPjp7mDfWJehHmQ,Le Bon Burger,"[{'alias': 'burgers', 'title': 'Burgers'}, {'alias': 'tradamerican', 'title': 'American'}]",392.0,24 place aux Huiles,36.0,4.5
234,,43.29612,5.37825,,7av0DefYvzlnjg7dPJgirg,Toinou,"[{'alias': 'seafood', 'title': 'Seafood'}, {'alias': 'seafoodmarkets', 'title': 'Seafood Markets'}]",275.0,3 cours Saint-Louis,217.0,3.5
235,,43.29261,5.37571,,OXU6KQgkDc7aM9UFDYq1nQ,Les Panisses,"[{'alias': 'french', 'title': 'French'}, {'alias': 'brasseries', 'title': 'Brasseries'}]",301.0,23 rue Sainte,39.0,4.0
236,,43.295589,5.379063,,EfMabFwgjmWoUibT1DMMzw,Sauveur,"[{'alias': 'pizza', 'title': 'Pizza'}]",532.0,10 rue d'Aubagne,132.0,4.5
237,,43.296302648832,5.37139641627038,,B9EDlS5y7zaHUVRFTE5PeA,La Caravelle,"[{'alias': 'bars', 'title': 'Bars'}, {'alias': 'provencal', 'title': 'Provencal'}]",427.0,34 quai du Port,262.0,4.0
238,,43.29952,5.37744,,nrxYjkyHSklYcUv4VaNnfg,Le Grain de Sable,"[{'alias': 'vegetarian', 'title': 'Vegetarian'}, {'alias': 'french', 'title': 'French'}]",215.0,34 Rue Baignoir,47.0,4.5
239,,43.2963958166187,5.37366704830174,,CSFc59c3-zGbD-cwFa1pSA,Une Table au Sud,"[{'alias': 'mediterranean', 'title': 'Mediterranean'}]",329.0,1 Rue République,48.0,4.0
240,,43.296495,5.3742438,,DEHMfZxRq9HXrLx1GEnGfg,La Kahena,"[{'alias': 'arabian', 'title': 'Arabic'}, {'alias': 'mediterranean', 'title': 'Mediterranean'}]",308.0,2 rue de la République,68.0,3.5
241,,43.2969,5.37363,,i1aD9BdALxnbeacX1j3Utw,Déjeuner en Ville,"[{'alias': 'bistros', 'title': 'Bistros'}]",277.0,5 rue de la République,21.0,4.5
242,,43.2965,5.373197,,m5ERA2E2b07Dm5DSwj_cKA,Miramar,"[{'alias': 'seafood', 'title': 'Seafood'}]",331.0,12 quai du Port,143.0,3.5
243,,43.2972899,5.38546,,wwcX2d_9rQmz9OzUQEVFHw,Le Cercle Rouge,"[{'alias': 'tapas', 'title': 'Tapas Bars'}, {'alias': 'corsican', 'title': 'Corsican'}, {'alias': 'cocktailbars', 'title': 'Cocktail Bars'}]",889.0,41 rue Adolphe Thiers,65.0,4.5
244,,43.2977099227985,5.36929702883606,,_HmsDLwMLKrbmndlNQ7ZoQ,Vinonéo,"[{'alias': 'french', 'title': 'French'}, {'alias': 'wine_bars', 'title': 'Wine Bars'}, {'alias': 'mediterranean', 'title': 'Mediterranean'}]",477.0,6 place Daviel,56.0,4.5
245,,43.29612,5.37825,,7av0DefYvzlnjg7dPJgirg,Toinou,"[{'alias': 'seafood', 'title': 'Seafood'}, {'alias': 'seafoodmarkets', 'title': 'Seafood Markets'}]",440.0,3 cours Saint-Louis,217.0,3.5
246,,43.295589,5.379063,,EfMabFwgjmWoUibT1DMMzw,Sauveur,"[{'alias': 'pizza', 'title': 'Pizza'}]",252.0,10 rue d'Aubagne,132.0,4.5
247,,43.2963958166187,5.37366704830174,,CSFc59c3-zGbD-cwFa1pSA,Une Table au Sud,"[{'alias': 'mediterranean', 'title': 'Mediterranean'}]",240.0,1 Rue République,48.0,4.0
248,,43.296302648832,5.37139641627038,,B9EDlS5y7zaHUVRFTE5PeA,La Caravelle,"[{'alias': 'bars', 'title': 'Bars'}, {'alias': 'provencal', 'title': 'Provencal'}]",422.0,34 quai du Port,262.0,4.0
249,,43.29612,5.37825,,7av0DefYvzlnjg7dPJgirg,Toinou,"[{'alias': 'seafood', 'title': 'Seafood'}, {'alias': 'seafoodmarkets', 'title': 'Seafood Markets'}]",161.0,3 cours Saint-Louis,217.0,3.5
250,,43.29952,5.37744,,nrxYjkyHSklYcUv4VaNnfg,Le Grain de Sable,"[{'alias': 'vegetarian', 'title': 'Vegetarian'}, {'alias': 'french', 'title': 'French'}]",296.0,34 Rue Baignoir,47.0,4.5
251,,43.296495,5.3742438,,DEHMfZxRq9HXrLx1GEnGfg,La Kahena,"[{'alias': 'arabian', 'title': 'Arabic'}, {'alias': 'mediterranean', 'title': 'Mediterranean'}]",192.0,2 rue de la République,68.0,3.5
252,,43.2965,5.373197,,m5ERA2E2b07Dm5DSwj_cKA,Miramar,"[{'alias': 'seafood', 'title': 'Seafood'}]",275.0,12 quai du Port,143.0,3.5
253,,43.2969,5.37363,,i1aD9BdALxnbeacX1j3Utw,Déjeuner en Ville,"[{'alias': 'bistros', 'title': 'Bistros'}]",235.0,5 rue de la République,21.0,4.5
254,,43.293379,5.375462,,VO2Gk3YV0vMLEkc3jg0_BA,Grumpy Cakes,"[{'alias': 'tea', 'title': 'Tea Rooms'}, {'alias': 'desserts', 'title': 'Desserts'}, {'alias': 'salad', 'title': 'Salad'}]",404.0,12 rue Corneille,35.0,4.5
255,,43.2972899,5.38546,,wwcX2d_9rQmz9OzUQEVFHw,Le Cercle Rouge,"[{'alias': 'tapas', 'title': 'Tapas Bars'}, {'alias': 'corsican', 'title': 'Corsican'}, {'alias': 'cocktailbars', 'title': 'Cocktail Bars'}]",723.0,41 rue Adolphe Thiers,65.0,4.5
256,,43.295589,5.379063,,EfMabFwgjmWoUibT1DMMzw,Sauveur,"[{'alias': 'pizza', 'title': 'Pizza'}]",228.0,10 rue d'Aubagne,132.0,4.5
257,,43.293307,5.375469,,uLqZhed6FOI-Yxmdi-W2tA,Le Petit Flore,"[{'alias': 'mediterranean', 'title': 'Mediterranean'}, {'alias': 'french', 'title': 'French'}]",235.0,14 rue Corneille,24.0,5.0
258,,43.293379,5.375462,,VO2Gk3YV0vMLEkc3jg0_BA,Grumpy Cakes,"[{'alias': 'tea', 'title': 'Tea Rooms'}, {'alias': 'desserts', 'title': 'Desserts'}, {'alias': 'salad', 'title': 'Salad'}]",235.0,12 rue Corneille,35.0,4.5
259,,43.29261,5.37571,,OXU6KQgkDc7aM9UFDYq1nQ,Les Panisses,"[{'alias': 'french', 'title': 'French'}, {'alias': 'brasseries', 'title': 'Brasseries'}]",240.0,23 rue Sainte,39.0,4.0
260,,43.29612,5.37825,,7av0DefYvzlnjg7dPJgirg,Toinou,"[{'alias': 'seafood', 'title': 'Seafood'}, {'alias': 'seafoodmarkets', 'title': 'Seafood Markets'}]",285.0,3 cours Saint-Louis,217.0,3.5
261,,43.29253,5.37558,,Jpa7n24xU5h_UTOkbQGyJg,Le Grand Latin,"[{'alias': 'italian', 'title': 'Italian'}]",256.0,27 rue Sainte,179.0,4.0
262,,43.29022,5.37866,,KsagIFKCpWr6X_hq9H_mKQ,Le Café de la Banque,"[{'alias': 'brasseries', 'title': 'Brasseries'}, {'alias': 'bars', 'title': 'Bars'}, {'alias': 'breakfast_brunch', 'title': 'Breakfast & Brunch'}]",371.0,24 bd Paul Peytral,65.0,4.5
263,,43.29263,5.37601,,cXLbCKm1pyJqEa9BdsyCyw,Le Bistrot à Vin,"[{'alias': 'bistros', 'title': 'Bistros'}, {'alias': 'wine_bars', 'title': 'Wine Bars'}]",220.0,17 rue Sainte,76.0,4.0
264,,43.29246,5.37528,,BSaulcp1BKErmK1ebf77tg,La Part des Anges,"[{'alias': 'bistros', 'title': 'Bistros'}, {'alias': 'tapas', 'title': 'Tapas Bars'}, {'alias': 'wine_bars', 'title': 'Wine Bars'}]",279.0,33 rue Sainte,192.0,3.5
265,,43.28937,5.37619,,0GfK46csa2y4fYoGHvuiIg,Treize en Vue,"[{'alias': 'bistros', 'title': 'Bistros'}, {'alias': 'french', 'title': 'French'}]",501.0,40 rue de Breteuil,45.0,4.5
266,,43.3009903,5.3881795,,dgIFNUTyd6ZbWGyTJFyAnQ,La Cantine de Nour d'Egypte,"[{'alias': 'egyptian', 'title': 'Egyptian'}]",369.0,10 rue Bernex,23.0,4.5
267,,43.295589,5.379063,,EfMabFwgjmWoUibT1DMMzw,Sauveur,"[{'alias': 'pizza', 'title': 'Pizza'}]",1250.0,10 rue d'Aubagne,132.0,4.5
268,,43.2972899,5.38546,,wwcX2d_9rQmz9OzUQEVFHw,Le Cercle Rouge,"[{'alias': 'tapas', 'title': 'Tapas Bars'}, {'alias': 'corsican', 'title': 'Corsican'}, {'alias': 'cocktailbars', 'title': 'Cocktail Bars'}]",823.0,41 rue Adolphe Thiers,65.0,4.5
269,,43.302143,5.38954,,JNVckjqRzuToK65LU-5P8Q,Teavora,"[{'alias': 'tea', 'title': 'Tea Rooms'}, {'alias': 'shopping', 'title': 'Shopping'}, {'alias': 'restaurants', 'title': 'Restaurants'}]",243.0,65 boulevard Longchamp,97.0,4.0
270,,43.30261,5.39091,,Hso967z4tT6DQkA_XL-Cdg,Pouce,"[{'alias': 'tea', 'title': 'Tea Rooms'}, {'alias': 'mediterranean', 'title': 'Mediterranean'}]",248.0,95 bd Longchamp,15.0,4.0
271,,43.30155,5.38749,,P__7FBiVbpZn4Wgf9qOnzw,Le Débouché,"[{'alias': 'wine_bars', 'title': 'Wine Bars'}, {'alias': 'french', 'title': 'French'}]",318.0,3 bd National,20.0,4.5
272,,43.304251217793,5.3943953234515,,I_GTBZ74Wb9DOQg-itmGaA,Palais Longchamp,"[{'alias': 'museums', 'title': 'Museums'}]",447.0,Place Henri Dunant,81.0,4.5
273,,43.29952,5.37744,,nrxYjkyHSklYcUv4VaNnfg,Le Grain de Sable,"[{'alias': 'vegetarian', 'title': 'Vegetarian'}, {'alias': 'french', 'title': 'French'}]",1065.0,34 Rue Baignoir,47.0,4.5
274,,43.30304,5.39733,,moqTbZsBc6V1Z_6hZ1utoQ,La Table Cinq,"[{'alias': 'french', 'title': 'French'}]",696.0,8 avenue des Chartreux,45.0,4.5
275,,43.3010402155052,5.38787447497631,,S-R64GUN37Fr_4e7caZE4Q,Longchamp Palace,"[{'alias': 'brasseries', 'title': 'Brasseries'}, {'alias': 'bistros', 'title': 'Bistros'}, {'alias': 'breakfast_brunch', 'title': 'Breakfast & Brunch'}]",368.0,22 bd Longchamp,54.0,3.5
276,,43.3009903,5.3881795,,dgIFNUTyd6ZbWGyTJFyAnQ,La Cantine de Nour d'Egypte,"[{'alias': 'egyptian', 'title': 'Egyptian'}]",389.0,10 rue Bernex,23.0,4.5
277,,43.2972899,5.38546,,wwcX2d_9rQmz9OzUQEVFHw,Le Cercle Rouge,"[{'alias': 'tapas', 'title': 'Tapas Bars'}, {'alias': 'corsican', 'title': 'Corsican'}, {'alias': 'cocktailbars', 'title': 'Cocktail Bars'}]",831.0,41 rue Adolphe Thiers,65.0,4.5
278,,43.304251217793,5.3943953234515,,I_GTBZ74Wb9DOQg-itmGaA,Palais Longchamp,"[{'alias': 'museums', 'title': 'Museums'}]",230.0,Place Henri Dunant,81.0,4.5
279,,43.30261,5.39091,,Hso967z4tT6DQkA_XL-Cdg,Pouce,"[{'alias': 'tea', 'title': 'Tea Rooms'}, {'alias': 'mediterranean', 'title': 'Mediterranean'}]",107.0,95 bd Longchamp,15.0,4.0
280,,43.302143,5.38954,,JNVckjqRzuToK65LU-5P8Q,Teavora,"[{'alias': 'tea', 'title': 'Tea Rooms'}, {'alias': 'shopping', 'title': 'Shopping'}, {'alias': 'restaurants', 'title': 'Restaurants'}]",230.0,65 boulevard Longchamp,97.0,4.0
281,,43.29424,5.384759,,qzI9sQ6vToMDi_RGk9W13w,Ummagumma,"[{'alias': 'french', 'title': 'French'}, {'alias': 'tapasmallplates', 'title': 'Tapas/Small Plates'}]",1141.0,26 rue des Trois Rois,78.0,4.5
282,,43.30304,5.39733,,moqTbZsBc6V1Z_6hZ1utoQ,La Table Cinq,"[{'alias': 'french', 'title': 'French'}]",417.0,8 avenue des Chartreux,45.0,4.5
283,,43.29443,5.38383,,4q-slQPktkv3bVPV4qrATg,Café Vian,"[{'alias': 'wine_bars', 'title': 'Wine Bars'}, {'alias': 'provencal', 'title': 'Provencal'}, {'alias': 'bbq', 'title': 'Barbeque'}]",1170.0,12 rue Vian,119.0,4.5
284,,43.29405,5.38541,,8aaP45FDUXeJhXKyPIvSfg,Casa No Name,"[{'alias': 'french', 'title': 'French'}, {'alias': 'mediterranean', 'title': 'Mediterranean'}]",1133.0,7 rue André Poggioli,30.0,4.5
285,,43.30185,5.39373,,QBoxR4UcA63sbIIC8U96Iw,Le Phénicia,"[{'alias': 'mideastern', 'title': 'Middle Eastern'}]",168.0,187 bd de la Libération,40.0,4.0
286,,43.280125,5.352096,,cBxRGoh-x6mcbcNuQ14zPQ,Le Petit Nice Passedat,"[{'alias': 'french', 'title': 'French'}, {'alias': 'seafood', 'title': 'Seafood'}]",844.0,17 rue des Braves,154.0,4.0
287,,43.283955,5.371235,,tltXVzIZGoS1rw5JeBdeww,Basilique Notre-Dame de la Garde,"[{'alias': 'churches', 'title': 'Churches'}, {'alias': 'landmarks', 'title': 'Landmarks & Historical Buildings'}]",1196.0,Rue Fort du Sanctuaire,197.0,4.5
288,,43.27558,5.35984,,x3MJvhMflY9zWYxxIpCyqg,Le Sunset,"[{'alias': 'brasseries', 'title': 'Brasseries'}, {'alias': 'bistros', 'title': 'Bistros'}]",99.0,315 corniche Kennedy,8.0,4.0
289,,43.2753878035253,5.35979576450515,,nz4C7lllIxIH_-d0vrNG-w,Corniche Kennedy,"[{'alias': 'landmarks', 'title': 'Landmarks & Historical Buildings'}, {'alias': 'hiking', 'title': 'Hiking'}]",131.0,Corniche John Fitzgerald,29.0,4.5
290,,43.28291,5.35037,,wOSIB3vmbZ-vbDrUQhbheQ,L'Eau à la Bouche,"[{'alias': 'pizza', 'title': 'Pizza'}]",1143.0,120 corniche du Président Kennedy,52.0,4.0
291,,43.28514,5.35036,,72YsfpjeCvaqXjJ1hdLc5Q,L'Epuisette,"[{'alias': 'french', 'title': 'French'}, {'alias': 'mediterranean', 'title': 'Mediterranean'}]",1317.0,156 Rue Vallon Des Auffes,145.0,4.5
292,,43.2755997,5.3599532,,PzZDS3aW7dNFsKFlBb8vXA,Zia Concetta,"[{'alias': 'trattorie', 'title': 'Trattorie'}, {'alias': 'importedfood', 'title': 'Imported Food'}]",107.0,315 corniche Kennedy,7.0,3.5
293,,43.27803,5.35529,,eTTL7338IzdKlbpKpOyuqg,Le Parc Valmer,"[{'alias': 'parks', 'title': 'Parks'}]",502.0,275 corniche John Fitzerald Kennedy,19.0,4.5
294,,43.27158,5.36293,,KmJkTvGhZlbQz4Q_tRJYpw,China Diner,"[{'alias': 'panasian', 'title': 'Pan Asian'}]",535.0,353 Promenade Corniche John Kennedy,22.0,4.0
295,,43.2675,5.37222,,L0M5Lf7mZTnkrwsQtvN4Rw,Le Comptoir Marseillais,"[{'alias': 'bars', 'title': 'Bars'}, {'alias': 'tapas', 'title': 'Tapas Bars'}, {'alias': 'mediterranean', 'title': 'Mediterranean'}]",1322.0,5 Promenade Georges Pompidou,59.0,3.5
296,,43.296302648832,5.37139641627038,,B9EDlS5y7zaHUVRFTE5PeA,La Caravelle,"[{'alias': 'bars', 'title': 'Bars'}, {'alias': 'provencal', 'title': 'Provencal'}]",169.0,34 quai du Port,262.0,4.0
297,,43.2977099227985,5.36929702883606,,_HmsDLwMLKrbmndlNQ7ZoQ,Vinonéo,"[{'alias': 'french', 'title': 'French'}, {'alias': 'wine_bars', 'title': 'Wine Bars'}, {'alias': 'mediterranean', 'title': 'Mediterranean'}]",127.0,6 place Daviel,56.0,4.5
298,,43.2965,5.373197,,m5ERA2E2b07Dm5DSwj_cKA,Miramar,"[{'alias': 'seafood', 'title': 'Seafood'}]",235.0,12 quai du Port,143.0,3.5
299,,43.2963958166187,5.37366704830174,,CSFc59c3-zGbD-cwFa1pSA,Une Table au Sud,"[{'alias': 'mediterranean', 'title': 'Mediterranean'}]",273.0,1 Rue République,48.0,4.0
300,,43.295589,5.379063,,EfMabFwgjmWoUibT1DMMzw,Sauveur,"[{'alias': 'pizza', 'title': 'Pizza'}]",705.0,10 rue d'Aubagne,132.0,4.5
301,,43.296061,5.36774,,hzeFLbv6RsGfVB3C9MJ5Nw,Carmine,"[{'alias': 'italian', 'title': 'Italian'}]",317.0,134 quai du Port,54.0,4.0
302,,43.29689,5.36919,,FHHCjx0O5Gq0udJS1reGcA,Le Café des Épices,"[{'alias': 'french', 'title': 'French'}]",164.0,4 rue du Lacydon,112.0,3.5
303,,43.29621,5.37132,,tpya1qrNPfCnSDFE53A6sQ,Le Bocal,"[{'alias': 'french', 'title': 'French'}]",177.0,58 Quai Du Port,23.0,4.0
304,,43.296495,5.3742438,,DEHMfZxRq9HXrLx1GEnGfg,La Kahena,"[{'alias': 'arabian', 'title': 'Arabic'}, {'alias': 'mediterranean', 'title': 'Mediterranean'}]",307.0,2 rue de la République,68.0,3.5
305,,43.2969,5.37363,,i1aD9BdALxnbeacX1j3Utw,Déjeuner en Ville,"[{'alias': 'bistros', 'title': 'Bistros'}]",243.0,5 rue de la République,21.0,4.5
306,,43.2977099227985,5.36929702883606,,_HmsDLwMLKrbmndlNQ7ZoQ,Vinonéo,"[{'alias': 'french', 'title': 'French'}, {'alias': 'wine_bars', 'title': 'Wine Bars'}, {'alias': 'mediterranean', 'title': 'Mediterranean'}]",270.0,6 place Daviel,56.0,4.5
307,,43.296302648832,5.37139641627038,,B9EDlS5y7zaHUVRFTE5PeA,La Caravelle,"[{'alias': 'bars', 'title': 'Bars'}, {'alias': 'provencal', 'title': 'Provencal'}]",333.0,34 quai du Port,262.0,4.0
308,,43.29549,5.36496,,EfmiePTnmslcGd-aolORYw,Au Bout du Quai,"[{'alias': 'french', 'title': 'French'}, {'alias': 'mediterranean', 'title': 'Mediterranean'}]",195.0,1 avenue St Jean,65.0,4.0
309,,43.296061,5.36774,,hzeFLbv6RsGfVB3C9MJ5Nw,Carmine,"[{'alias': 'italian', 'title': 'Italian'}]",48.0,134 quai du Port,54.0,4.0
310,,43.29676,5.36694,,3z7M4qMIUIO7-sdcGGtJMQ,Bobolivo,"[{'alias': 'brasseries', 'title': 'Brasseries'}, {'alias': 'bistros', 'title': 'Bistros'}, {'alias': 'french', 'title': 'French'}]",119.0,29 rue Caisserie,59.0,4.0
311,,43.29689,5.36919,,FHHCjx0O5Gq0udJS1reGcA,Le Café des Épices,"[{'alias': 'french', 'title': 'French'}]",201.0,4 rue du Lacydon,112.0,3.5
312,,43.2934859745132,5.37051770435187,,x1HzS7UZj3v1bMzDcY50vQ,La Nautique,"[{'alias': 'french', 'title': 'French'}, {'alias': 'seafood', 'title': 'Seafood'}, {'alias': 'mediterranean', 'title': 'Mediterranean'}]",357.0,20 quai de Rive Neuve,60.0,4.0
313,,43.295589,5.379063,,EfMabFwgjmWoUibT1DMMzw,Sauveur,"[{'alias': 'pizza', 'title': 'Pizza'}]",947.0,10 rue d'Aubagne,132.0,4.5
314,,43.292585,5.369276,,0EPEOczx-pGPso0Ird5DFQ,Elyssa,"[{'alias': 'moroccan', 'title': 'Moroccan'}, {'alias': 'mideastern', 'title': 'Middle Eastern'}]",382.0,26 quai de Rive Neuve,10.0,4.5
315,,43.2926558819198,5.37180240555722,,gMbdTQCBPjp7mDfWJehHmQ,Le Bon Burger,"[{'alias': 'burgers', 'title': 'Burgers'}, {'alias': 'tradamerican', 'title': 'American'}]",496.0,24 place aux Huiles,36.0,4.5
316,,43.2977099227985,5.36929702883606,,_HmsDLwMLKrbmndlNQ7ZoQ,Vinonéo,"[{'alias': 'french', 'title': 'French'}, {'alias': 'wine_bars', 'title': 'Wine Bars'}, {'alias': 'mediterranean', 'title': 'Mediterranean'}]",284.0,6 place Daviel,56.0,4.5
317,,43.296061,5.36774,,hzeFLbv6RsGfVB3C9MJ5Nw,Carmine,"[{'alias': 'italian', 'title': 'Italian'}]",194.0,134 quai du Port,54.0,4.0
318,,43.29549,5.36496,,EfmiePTnmslcGd-aolORYw,Au Bout du Quai,"[{'alias': 'french', 'title': 'French'}, {'alias': 'mediterranean', 'title': 'Mediterranean'}]",199.0,1 avenue St Jean,65.0,4.0
319,,43.29676,5.36694,,3z7M4qMIUIO7-sdcGGtJMQ,Bobolivo,"[{'alias': 'brasseries', 'title': 'Brasseries'}, {'alias': 'bistros', 'title': 'Bistros'}, {'alias': 'french', 'title': 'French'}]",97.0,29 rue Caisserie,59.0,4.0
320,,43.299392,5.366495,,7T5qFvxKuQCtIi7lIWFNUw,Bar des 13 Coins,"[{'alias': 'bars', 'title': 'Bars'}, {'alias': 'cafes', 'title': 'Cafes'}, {'alias': 'mediterranean', 'title': 'Mediterranean'}]",253.0,45 rue Sainte-Françoise,36.0,4.0
321,,43.297341879079,5.3661457212746,,d7DPeMG-Xd-bgAimxP0g6g,Côté Rue,"[{'alias': 'french', 'title': 'French'}]",30.0,14 Rue St Pons,19.0,4.5
322,,43.29689,5.36919,,FHHCjx0O5Gq0udJS1reGcA,Le Café des Épices,"[{'alias': 'french', 'title': 'French'}]",267.0,4 rue du Lacydon,112.0,3.5
323,,43.29757,5.36582,,E9TLfdXTV5hVR2FucFhmSA,Au Lamparo,"[{'alias': 'mediterranean', 'title': 'Mediterranean'}]",45.0,4 place de Lenche,44.0,3.5
324,,43.296302648832,5.37139641627038,,B9EDlS5y7zaHUVRFTE5PeA,La Caravelle,"[{'alias': 'bars', 'title': 'Bars'}, {'alias': 'provencal', 'title': 'Provencal'}]",457.0,34 quai du Port,262.0,4.0
325,,43.298262,5.365831,,xJwv3DT4KrCuLcFZ9KOiqQ,Douceur Piquante,"[{'alias': 'french', 'title': 'French'}, {'alias': 'african', 'title': 'African'}]",122.0,17 rue de l'Eveché,10.0,4.0
326,,43.2926558819198,5.37180240555722,,gMbdTQCBPjp7mDfWJehHmQ,Le Bon Burger,"[{'alias': 'burgers', 'title': 'Burgers'}, {'alias': 'tradamerican', 'title': 'American'}]",69.0,24 place aux Huiles,36.0,4.5
327,,43.29287,5.37178,,ApiCSbuCSLk61vDLr2DV-g,Le Bouchon Provençal,"[{'alias': 'restaurants', 'title': 'Restaurants'}]",45.0,6 place aux Huiles,39.0,4.0
328,,43.29283,5.372,,rCGAq1AU-l9YzIXQnU02Fw,César Place,"[{'alias': 'modern_european', 'title': 'Modern European'}, {'alias': 'french', 'title': 'French'}, {'alias': 'farmersmarket', 'title': 'Farmers Market'}, {'alias': 'mediterranean', 'title': 'Mediterranean'}]",64.0,21 place aux Huiles,131.0,4.0
329,,43.296302648832,5.37139641627038,,B9EDlS5y7zaHUVRFTE5PeA,La Caravelle,"[{'alias': 'bars', 'title': 'Bars'}, {'alias': 'provencal', 'title': 'Provencal'}]",338.0,34 quai du Port,262.0,4.0
330,,43.2931621,5.3704376,,3oHgqULE2o6whNFD1Rpa4Q,Nul Part Ailleurs,"[{'alias': 'provencal', 'title': 'Provencal'}]",93.0,18 quai Rive Neuve,145.0,3.5
331,,43.2934859745132,5.37051770435187,,x1HzS7UZj3v1bMzDcY50vQ,La Nautique,"[{'alias': 'french', 'title': 'French'}, {'alias': 'seafood', 'title': 'Seafood'}, {'alias': 'mediterranean', 'title': 'Mediterranean'}]",90.0,20 quai de Rive Neuve,60.0,4.0
332,,43.29227,5.37219,,P8lycs-He3pcX9T3XZYlaw,La Côte de Boeuf,"[{'alias': 'bbq', 'title': 'Barbeque'}, {'alias': 'steak', 'title': 'Steakhouses'}, {'alias': 'provencal', 'title': 'Provencal'}]",123.0,35 cours Honoré d'Estienne d'Orves,195.0,4.0
333,,43.29274,5.37134,,Pvzn2DLyJgUWwU6X54zHZw,La Table du Fort,"[{'alias': 'french', 'title': 'French'}]",60.0,8 rue Fort Notre Dame,58.0,4.5
334,,43.293,5.37065,,f_4zKfz61WZoChv4fa521w,The Shamrock,"[{'alias': 'pubs', 'title': 'Pubs'}, {'alias': 'beerbar', 'title': 'Beer Bar'}]",79.0,16/17 quai de Rive Neuve,117.0,4.0
335,,43.291975,5.37325,,J1swRC87LWZueCuX_I7CXQ,La Poule Noire,"[{'alias': 'french', 'title': 'French'}]",196.0,61 rue Sainte,43.0,4.0
336,,43.295589,5.379063,,EfMabFwgjmWoUibT1DMMzw,Sauveur,"[{'alias': 'pizza', 'title': 'Pizza'}]",311.0,10 rue d'Aubagne,132.0,4.5
337,,43.296302648832,5.37139641627038,,B9EDlS5y7zaHUVRFTE5PeA,La Caravelle,"[{'alias': 'bars', 'title': 'Bars'}, {'alias': 'provencal', 'title': 'Provencal'}]",315.0,34 quai du Port,262.0,4.0
338,,43.2965,5.373197,,m5ERA2E2b07Dm5DSwj_cKA,Miramar,"[{'alias': 'seafood', 'title': 'Seafood'}]",183.0,12 quai du Port,143.0,3.5
339,,43.2963958166187,5.37366704830174,,CSFc59c3-zGbD-cwFa1pSA,Une Table au Sud,"[{'alias': 'mediterranean', 'title': 'Mediterranean'}]",144.0,1 Rue République,48.0,4.0
340,,43.293307,5.375469,,uLqZhed6FOI-Yxmdi-W2tA,Le Petit Flore,"[{'alias': 'mediterranean', 'title': 'Mediterranean'}, {'alias': 'french', 'title': 'French'}]",272.0,14 rue Corneille,24.0,5.0
341,,43.29612,5.37825,,7av0DefYvzlnjg7dPJgirg,Toinou,"[{'alias': 'seafood', 'title': 'Seafood'}, {'alias': 'seafoodmarkets', 'title': 'Seafood Markets'}]",248.0,3 cours Saint-Louis,217.0,3.5
342,,43.296495,5.3742438,,DEHMfZxRq9HXrLx1GEnGfg,La Kahena,"[{'alias': 'arabian', 'title': 'Arabic'}, {'alias': 'mediterranean', 'title': 'Mediterranean'}]",114.0,2 rue de la République,68.0,3.5
343,,43.293379,5.375462,,VO2Gk3YV0vMLEkc3jg0_BA,Grumpy Cakes,"[{'alias': 'tea', 'title': 'Tea Rooms'}, {'alias': 'desserts', 'title': 'Desserts'}, {'alias': 'salad', 'title': 'Salad'}]",264.0,12 rue Corneille,35.0,4.5
344,,43.2969,5.37363,,i1aD9BdALxnbeacX1j3Utw,Déjeuner en Ville,"[{'alias': 'bistros', 'title': 'Bistros'}]",181.0,5 rue de la République,21.0,4.5
345,,43.2926558819198,5.37180240555722,,gMbdTQCBPjp7mDfWJehHmQ,Le Bon Burger,"[{'alias': 'burgers', 'title': 'Burgers'}, {'alias': 'tradamerican', 'title': 'American'}]",441.0,24 place aux Huiles,36.0,4.5
346,,43.299392,5.366495,,7T5qFvxKuQCtIi7lIWFNUw,Bar des 13 Coins,"[{'alias': 'bars', 'title': 'Bars'}, {'alias': 'cafes', 'title': 'Cafes'}, {'alias': 'mediterranean', 'title': 'Mediterranean'}]",79.0,45 rue Sainte-Françoise,36.0,4.0
347,,43.2977099227985,5.36929702883606,,_HmsDLwMLKrbmndlNQ7ZoQ,Vinonéo,"[{'alias': 'french', 'title': 'French'}, {'alias': 'wine_bars', 'title': 'Wine Bars'}, {'alias': 'mediterranean', 'title': 'Mediterranean'}]",346.0,6 place Daviel,56.0,4.5
348,,43.29676,5.36694,,3z7M4qMIUIO7-sdcGGtJMQ,Bobolivo,"[{'alias': 'brasseries', 'title': 'Brasseries'}, {'alias': 'bistros', 'title': 'Bistros'}, {'alias': 'french', 'title': 'French'}]",294.0,29 rue Caisserie,59.0,4.0
349,,43.296302648832,5.37139641627038,,B9EDlS5y7zaHUVRFTE5PeA,La Caravelle,"[{'alias': 'bars', 'title': 'Bars'}, {'alias': 'provencal', 'title': 'Provencal'}]",573.0,34 quai du Port,262.0,4.0
350,,43.298262,5.365831,,xJwv3DT4KrCuLcFZ9KOiqQ,Douceur Piquante,"[{'alias': 'french', 'title': 'French'}, {'alias': 'african', 'title': 'African'}]",107.0,17 rue de l'Eveché,10.0,4.0
351,,43.296061,5.36774,,hzeFLbv6RsGfVB3C9MJ5Nw,Carmine,"[{'alias': 'italian', 'title': 'Italian'}]",392.0,134 quai du Port,54.0,4.0
352,,43.29757,5.36582,,E9TLfdXTV5hVR2FucFhmSA,Au Lamparo,"[{'alias': 'mediterranean', 'title': 'Mediterranean'}]",183.0,4 place de Lenche,44.0,3.5
353,,43.30096,5.3675,,ErrRpZz1Pk9xo_cGnkh-hw,Le Taxi Brousse,"[{'alias': 'danceclubs', 'title': 'Dance Clubs'}, {'alias': 'african', 'title': 'African'}]",296.0,21 rue Observance,35.0,3.5
354,,43.297341879079,5.3661457212746,,d7DPeMG-Xd-bgAimxP0g6g,Côté Rue,"[{'alias': 'french', 'title': 'French'}]",213.0,14 Rue St Pons,19.0,4.5
355,,43.29549,5.36496,,EfmiePTnmslcGd-aolORYw,Au Bout du Quai,"[{'alias': 'french', 'title': 'French'}, {'alias': 'mediterranean', 'title': 'Mediterranean'}]",416.0,1 avenue St Jean,65.0,4.0
356,,43.29549,5.36496,,EfmiePTnmslcGd-aolORYw,Au Bout du Quai,"[{'alias': 'french', 'title': 'French'}, {'alias': 'mediterranean', 'title': 'Mediterranean'}]",371.0,1 avenue St Jean,65.0,4.0
357,,43.296302648832,5.37139641627038,,B9EDlS5y7zaHUVRFTE5PeA,La Caravelle,"[{'alias': 'bars', 'title': 'Bars'}, {'alias': 'provencal', 'title': 'Provencal'}]",736.0,34 quai du Port,262.0,4.0
358,,43.299392,5.366495,,7T5qFvxKuQCtIi7lIWFNUw,Bar des 13 Coins,"[{'alias': 'bars', 'title': 'Bars'}, {'alias': 'cafes', 'title': 'Cafes'}, {'alias': 'mediterranean', 'title': 'Mediterranean'}]",319.0,45 rue Sainte-Françoise,36.0,4.0
359,,43.298262,5.365831,,xJwv3DT4KrCuLcFZ9KOiqQ,Douceur Piquante,"[{'alias': 'french', 'title': 'French'}, {'alias': 'african', 'title': 'African'}]",248.0,17 rue de l'Eveché,10.0,4.0
360,,43.2977099227985,5.36929702883606,,_HmsDLwMLKrbmndlNQ7ZoQ,Vinonéo,"[{'alias': 'french', 'title': 'French'}, {'alias': 'wine_bars', 'title': 'Wine Bars'}, {'alias': 'mediterranean', 'title': 'Mediterranean'}]",533.0,6 place Daviel,56.0,4.5
361,,43.296824,5.360513,,0gmNEf9PuzKm55Pm0oIhsw,MuCEM,"[{'alias': 'museums', 'title': 'Museums'}]",255.0,7 promenade Robert Laffont,70.0,4.0
362,,43.29676,5.36694,,3z7M4qMIUIO7-sdcGGtJMQ,Bobolivo,"[{'alias': 'brasseries', 'title': 'Brasseries'}, {'alias': 'bistros', 'title': 'Bistros'}, {'alias': 'french', 'title': 'French'}]",385.0,29 rue Caisserie,59.0,4.0
363,,43.29757,5.36582,,E9TLfdXTV5hVR2FucFhmSA,Au Lamparo,"[{'alias': 'mediterranean', 'title': 'Mediterranean'}]",264.0,4 place de Lenche,44.0,3.5
364,,43.297341879079,5.3661457212746,,d7DPeMG-Xd-bgAimxP0g6g,Côté Rue,"[{'alias': 'french', 'title': 'French'}]",298.0,14 Rue St Pons,19.0,4.5
365,,43.2926558819198,5.37180240555722,,gMbdTQCBPjp7mDfWJehHmQ,Le Bon Burger,"[{'alias': 'burgers', 'title': 'Burgers'}, {'alias': 'tradamerican', 'title': 'American'}]",972.0,24 place aux Huiles,36.0,4.5
366,,43.295589,5.379063,,EfMabFwgjmWoUibT1DMMzw,Sauveur,"[{'alias': 'pizza', 'title': 'Pizza'}]",390.0,10 rue d'Aubagne,132.0,4.5
367,,43.29263,5.37601,,cXLbCKm1pyJqEa9BdsyCyw,Le Bistrot à Vin,"[{'alias': 'bistros', 'title': 'Bistros'}, {'alias': 'wine_bars', 'title': 'Wine Bars'}]",30.0,17 rue Sainte,76.0,4.0
368,,43.293307,5.375469,,uLqZhed6FOI-Yxmdi-W2tA,Le Petit Flore,"[{'alias': 'mediterranean', 'title': 'Mediterranean'}, {'alias': 'french', 'title': 'French'}]",103.0,14 rue Corneille,24.0,5.0
369,,43.2926558819198,5.37180240555722,,gMbdTQCBPjp7mDfWJehHmQ,Le Bon Burger,"[{'alias': 'burgers', 'title': 'Burgers'}, {'alias': 'tradamerican', 'title': 'American'}]",371.0,24 place aux Huiles,36.0,4.5
370,,43.28937,5.37619,,0GfK46csa2y4fYoGHvuiIg,Treize en Vue,"[{'alias': 'bistros', 'title': 'Bistros'}, {'alias': 'french', 'title': 'French'}]",366.0,40 rue de Breteuil,45.0,4.5
371,,43.293379,5.375462,,VO2Gk3YV0vMLEkc3jg0_BA,Grumpy Cakes,"[{'alias': 'tea', 'title': 'Tea Rooms'}, {'alias': 'desserts', 'title': 'Desserts'}, {'alias': 'salad', 'title': 'Salad'}]",109.0,12 rue Corneille,35.0,4.5
372,,43.29253,5.37558,,Jpa7n24xU5h_UTOkbQGyJg,Le Grand Latin,"[{'alias': 'italian', 'title': 'Italian'}]",67.0,27 rue Sainte,179.0,4.0
373,,43.291975,5.37325,,J1swRC87LWZueCuX_I7CXQ,La Poule Noire,"[{'alias': 'french', 'title': 'French'}]",265.0,61 rue Sainte,43.0,4.0
374,,43.29246,5.37528,,BSaulcp1BKErmK1ebf77tg,La Part des Anges,"[{'alias': 'bistros', 'title': 'Bistros'}, {'alias': 'tapas', 'title': 'Tapas Bars'}, {'alias': 'wine_bars', 'title': 'Wine Bars'}]",91.0,33 rue Sainte,192.0,3.5
375,,43.292965,5.373082,,5lcj-8Ru10wL293ZvIEg3g,Brocéliande,"[{'alias': 'creperies', 'title': 'Creperies'}, {'alias': 'brasseries', 'title': 'Brasseries'}]",269.0,9 rue Euthymenes,67.0,4.0
376,,43.295589,5.379063,,EfMabFwgjmWoUibT1DMMzw,Sauveur,"[{'alias': 'pizza', 'title': 'Pizza'}]",170.0,10 rue d'Aubagne,132.0,4.5
377,,43.29443,5.38383,,4q-slQPktkv3bVPV4qrATg,Café Vian,"[{'alias': 'wine_bars', 'title': 'Wine Bars'}, {'alias': 'provencal', 'title': 'Provencal'}, {'alias': 'bbq', 'title': 'Barbeque'}]",282.0,12 rue Vian,119.0,4.5
378,,43.2972899,5.38546,,wwcX2d_9rQmz9OzUQEVFHw,Le Cercle Rouge,"[{'alias': 'tapas', 'title': 'Tapas Bars'}, {'alias': 'corsican', 'title': 'Corsican'}, {'alias': 'cocktailbars', 'title': 'Cocktail Bars'}]",382.0,41 rue Adolphe Thiers,65.0,4.5
379,,43.29527,5.3829,,a9lsL7wF75lRMGXGbJdGqw,La Garbure,"[{'alias': 'sud_ouest', 'title': 'French Southwest'}]",172.0,9 cours Julien,110.0,4.5
380,,43.295178,5.383073,,F7obt-xr5zG2leMx9MCKgQ,Bistro du Cours,"[{'alias': 'bistros', 'title': 'Bistros'}]",186.0,13 cours Julien,66.0,4.5
381,,43.29447,5.38294,,IP2GjTvlE38PrFBbfKSqQg,L'Oléas,"[{'alias': 'mediterranean', 'title': 'Mediterranean'}, {'alias': 'french', 'title': 'French'}]",228.0,27 cours Julien,54.0,4.0
382,,43.29612,5.37825,,7av0DefYvzlnjg7dPJgirg,Toinou,"[{'alias': 'seafood', 'title': 'Seafood'}, {'alias': 'seafoodmarkets', 'title': 'Seafood Markets'}]",231.0,3 cours Saint-Louis,217.0,3.5
383,,43.29424,5.384759,,qzI9sQ6vToMDi_RGk9W13w,Ummagumma,"[{'alias': 'french', 'title': 'French'}, {'alias': 'tapasmallplates', 'title': 'Tapas/Small Plates'}]",357.0,26 rue des Trois Rois,78.0,4.5
384,,43.2947047,5.3831728,,Af0SLgoxTCHsdYwZVqsbtg,Le Bistro Vénitien,"[{'alias': 'pizza', 'title': 'Pizza'}, {'alias': 'french', 'title': 'French'}, {'alias': 'thai', 'title': 'Thai'}]",223.0,29 cours Julien,60.0,4.0
385,,43.29464,5.383689,,hGwDylpMp4qWXnKDnyBCPA,La Marche à Suivre,"[{'alias': 'french', 'title': 'French'}]",260.0,12 rue Vian,124.0,4.0
386,,43.295589,5.379063,,EfMabFwgjmWoUibT1DMMzw,Sauveur,"[{'alias': 'pizza', 'title': 'Pizza'}]",316.0,10 rue d'Aubagne,132.0,4.5
387,,43.2972899,5.38546,,wwcX2d_9rQmz9OzUQEVFHw,Le Cercle Rouge,"[{'alias': 'tapas', 'title': 'Tapas Bars'}, {'alias': 'corsican', 'title': 'Corsican'}, {'alias': 'cocktailbars', 'title': 'Cocktail Bars'}]",365.0,41 rue Adolphe Thiers,65.0,4.5
388,,43.29612,5.37825,,7av0DefYvzlnjg7dPJgirg,Toinou,"[{'alias': 'seafood', 'title': 'Seafood'}, {'alias': 'seafoodmarkets', 'title': 'Seafood Markets'}]",309.0,3 cours Saint-Louis,217.0,3.5
389,,43.296302648832,5.37139641627038,,B9EDlS5y7zaHUVRFTE5PeA,La Caravelle,"[{'alias': 'bars', 'title': 'Bars'}, {'alias': 'provencal', 'title': 'Provencal'}]",805.0,34 quai du Port,262.0,4.0
390,,43.29869,5.38089,,7OGAxOPxyio9ti53owZYwA,Le Comptoir Dugommier,"[{'alias': 'brasseries', 'title': 'Brasseries'}]",73.0,14 bd Dugommier,24.0,4.0
391,,43.29424,5.384759,,qzI9sQ6vToMDi_RGk9W13w,Ummagumma,"[{'alias': 'french', 'title': 'French'}, {'alias': 'tapasmallplates', 'title': 'Tapas/Small Plates'}]",517.0,26 rue des Trois Rois,78.0,4.5
392,,43.29952,5.37744,,nrxYjkyHSklYcUv4VaNnfg,Le Grain de Sable,"[{'alias': 'vegetarian', 'title': 'Vegetarian'}, {'alias': 'french', 'title': 'French'}]",336.0,34 Rue Baignoir,47.0,4.5
393,,43.2967791,5.3808586,,zBIhUIO9XRlQlV4tyE_ACQ,Arigato Sushi,"[{'alias': 'sushi', 'title': 'Sushi Bars'}]",140.0,16 bd Garibaldi,12.0,4.0
394,,43.29863,5.38076,,tYVRvl-U-lhYSRsfyLcFSQ,Ghomrassen,"[{'alias': 'moroccan', 'title': 'Moroccan'}]",72.0,21 bd Dugommier,10.0,4.5
395,,43.29443,5.38383,,4q-slQPktkv3bVPV4qrATg,Café Vian,"[{'alias': 'wine_bars', 'title': 'Wine Bars'}, {'alias': 'provencal', 'title': 'Provencal'}, {'alias': 'bbq', 'title': 'Barbeque'}]",459.0,12 rue Vian,119.0,4.5
396,,43.2977099227985,5.36929702883606,,_HmsDLwMLKrbmndlNQ7ZoQ,Vinonéo,"[{'alias': 'french', 'title': 'French'}, {'alias': 'wine_bars', 'title': 'Wine Bars'}, {'alias': 'mediterranean', 'title': 'Mediterranean'}]",951.0,6 place Daviel,56.0,4.5
397,,43.30466,5.36631,,Bqo2UNcGWXKbzPOkxz1ubQ,La Table de l'Olivier,"[{'alias': 'modern_european', 'title': 'Modern European'}]",502.0,56 Rue Mazenod,29.0,4.5
398,,43.29952,5.37744,,nrxYjkyHSklYcUv4VaNnfg,Le Grain de Sable,"[{'alias': 'vegetarian', 'title': 'Vegetarian'}, {'alias': 'french', 'title': 'French'}]",832.0,34 Rue Baignoir,47.0,4.5
399,,43.299392,5.366495,,7T5qFvxKuQCtIi7lIWFNUw,Bar des 13 Coins,"[{'alias': 'bars', 'title': 'Bars'}, {'alias': 'cafes', 'title': 'Cafes'}, {'alias': 'mediterranean', 'title': 'Mediterranean'}]",868.0,45 rue Sainte-Françoise,36.0,4.0
400,,43.30245,5.36955,,eKgA2i_Rn_dGkQviJv0C5Q,Le Perroquet Bleu,"[{'alias': 'brasseries', 'title': 'Brasseries'}, {'alias': 'tapasmallplates', 'title': 'Tapas/Small Plates'}]",450.0,72 bd des Dames,24.0,3.5
401,,43.29689,5.36919,,FHHCjx0O5Gq0udJS1reGcA,Le Café des Épices,"[{'alias': 'french', 'title': 'French'}]",1033.0,4 rue du Lacydon,112.0,3.5
402,,43.30096,5.3675,,ErrRpZz1Pk9xo_cGnkh-hw,Le Taxi Brousse,"[{'alias': 'danceclubs', 'title': 'Dance Clubs'}, {'alias': 'african', 'title': 'African'}]",632.0,21 rue Observance,35.0,3.5
403,,43.305346,5.366118,,GoLH3UFuAtBHX3xHquppCg,Big Fernand,"[{'alias': 'burgers', 'title': 'Burgers'}]",501.0,10 place de la Joliette,23.0,3.5
404,,43.298262,5.365831,,xJwv3DT4KrCuLcFZ9KOiqQ,Douceur Piquante,"[{'alias': 'french', 'title': 'French'}, {'alias': 'african', 'title': 'African'}]",1003.0,17 rue de l'Eveché,10.0,4.0
405,,43.30013,5.36777,,j62tK8kS8TigYmhO_IxC4Q,Centre de la Vieille Charité,"[{'alias': 'landmarks', 'title': 'Landmarks & Historical Buildings'}, {'alias': 'museums', 'title': 'Museums'}]",738.0,2 rue de la Charité,47.0,4.5
406,,43.2972899,5.38546,,wwcX2d_9rQmz9OzUQEVFHw,Le Cercle Rouge,"[{'alias': 'tapas', 'title': 'Tapas Bars'}, {'alias': 'corsican', 'title': 'Corsican'}, {'alias': 'cocktailbars', 'title': 'Cocktail Bars'}]",223.0,41 rue Adolphe Thiers,65.0,4.5
407,,43.29443,5.38383,,4q-slQPktkv3bVPV4qrATg,Café Vian,"[{'alias': 'wine_bars', 'title': 'Wine Bars'}, {'alias': 'provencal', 'title': 'Provencal'}, {'alias': 'bbq', 'title': 'Barbeque'}]",176.0,12 rue Vian,119.0,4.5
408,,43.29424,5.384759,,qzI9sQ6vToMDi_RGk9W13w,Ummagumma,"[{'alias': 'french', 'title': 'French'}, {'alias': 'tapasmallplates', 'title': 'Tapas/Small Plates'}]",134.0,26 rue des Trois Rois,78.0,4.5
409,,43.29405,5.38541,,8aaP45FDUXeJhXKyPIvSfg,Casa No Name,"[{'alias': 'french', 'title': 'French'}, {'alias': 'mediterranean', 'title': 'Mediterranean'}]",138.0,7 rue André Poggioli,30.0,4.5
410,,43.295589,5.379063,,EfMabFwgjmWoUibT1DMMzw,Sauveur,"[{'alias': 'pizza', 'title': 'Pizza'}]",528.0,10 rue d'Aubagne,132.0,4.5
411,,43.2937810155134,5.38633754860625,,CmHI3dv9Ek4ns9KY-mxM5A,Chez Ida,"[{'alias': 'french', 'title': 'French'}, {'alias': 'karaoke', 'title': 'Karaoke'}]",178.0,7 Rue Ferdinand Rey,31.0,4.5
412,,43.2938186,5.3849285,,gQE8ilVDY7JmgQMgv9lomg,WAAW,"[{'alias': 'eventplanning', 'title': 'Party & Event Planning'}, {'alias': 'bistros', 'title': 'Bistros'}]",171.0,17 rue Pastoret,29.0,4.0
413,,43.29412,5.38475,,KjP62bxxlqEpNv-SxBxW6Q,O'Pakistan,"[{'alias': 'pakistani', 'title': 'Pakistani'}, {'alias': 'indpak', 'title': 'Indian'}]",146.0,11 rue des Trois Rois,186.0,4.0
414,,43.29447,5.38294,,IP2GjTvlE38PrFBbfKSqQg,L'Oléas,"[{'alias': 'mediterranean', 'title': 'Mediterranean'}, {'alias': 'french', 'title': 'French'}]",232.0,27 cours Julien,54.0,4.0
415,,43.2917571,5.3842254,,KgYoPVXM50ZRhWeDl4mlMA,Le Corto,"[{'alias': 'tapasmallplates', 'title': 'Tapas/Small Plates'}, {'alias': 'french', 'title': 'French'}, {'alias': 'mediterranean', 'title': 'Mediterranean'}]",407.0,24 place Notre-Dame du Mont,65.0,4.5
416,,43.3090467,5.3664055,,CEaJozrBUgjkCJ-VYnSH2A,Yoj By Yoji,"[{'alias': 'japanese', 'title': 'Japanese'}]",166.0,9 quai du Lazaret,12.0,3.5
417,,43.30466,5.36631,,Bqo2UNcGWXKbzPOkxz1ubQ,La Table de l'Olivier,"[{'alias': 'modern_european', 'title': 'Modern European'}]",521.0,56 Rue Mazenod,29.0,4.5
418,,43.305346,5.366118,,GoLH3UFuAtBHX3xHquppCg,Big Fernand,"[{'alias': 'burgers', 'title': 'Burgers'}]",456.0,10 place de la Joliette,23.0,3.5
419,,43.30785,5.36798,,V9Hskiw_MDVclVoC6bJoaA,Simply Food,"[{'alias': 'hotdogs', 'title': 'Fast Food'}]",141.0,35 Boulevard Dunkerque,12.0,3.0
420,,43.30096,5.3675,,ErrRpZz1Pk9xo_cGnkh-hw,Le Taxi Brousse,"[{'alias': 'danceclubs', 'title': 'Dance Clubs'}, {'alias': 'african', 'title': 'African'}]",850.0,21 rue Observance,35.0,3.5
421,,43.30013,5.36777,,j62tK8kS8TigYmhO_IxC4Q,Centre de la Vieille Charité,"[{'alias': 'landmarks', 'title': 'Landmarks & Historical Buildings'}, {'alias': 'museums', 'title': 'Museums'}]",993.0,2 rue de la Charité,47.0,4.5
422,,43.30245,5.36955,,eKgA2i_Rn_dGkQviJv0C5Q,Le Perroquet Bleu,"[{'alias': 'brasseries', 'title': 'Brasseries'}, {'alias': 'tapasmallplates', 'title': 'Tapas/Small Plates'}]",741.0,72 bd des Dames,24.0,3.5
423,,43.3137,5.3795,,mCeyZXqQpeAJwN0AuGx8aQ,Friterie Werner & Co,"[{'alias': 'belgian', 'title': 'Belgian'}, {'alias': 'hotdogs', 'title': 'Fast Food'}]",1030.0,9 Rue Guy Mocquet,30.0,4.0
424,,43.306098991496,5.364997826999,,ugsouNIVclm64oWIF_uK3g,Beef House,"[{'alias': 'tradamerican', 'title': 'American'}, {'alias': 'bbq', 'title': 'Barbeque'}, {'alias': 'burgers', 'title': 'Burgers'}]",433.0,9 quai du Lazaret,33.0,3.0
425,,43.3013659374635,5.3640877982713,,PK7mZ0WjEZVlke3w9k85mw,White Rabbit,"[{'alias': 'pubs', 'title': 'Pubs'}, {'alias': 'lounges', 'title': 'Lounges'}]",927.0,23 quai de la Joliette,22.0,4.5
426,,43.30466,5.36631,,Bqo2UNcGWXKbzPOkxz1ubQ,La Table de l'Olivier,"[{'alias': 'modern_european', 'title': 'Modern European'}]",862.0,56 Rue Mazenod,29.0,4.5
427,,43.3090467,5.3664055,,CEaJozrBUgjkCJ-VYnSH2A,Yoj By Yoji,"[{'alias': 'japanese', 'title': 'Japanese'}]",395.0,9 quai du Lazaret,12.0,3.5
428,,43.3137,5.3795,,mCeyZXqQpeAJwN0AuGx8aQ,Friterie Werner & Co,"[{'alias': 'belgian', 'title': 'Belgian'}, {'alias': 'hotdogs', 'title': 'Fast Food'}]",899.0,9 Rue Guy Mocquet,30.0,4.0
429,,43.3155241,5.3669746,,7w3qn0GlQXJHyzjzgmaLVw,BO&CO,"[{'alias': 'french', 'title': 'French'}]",387.0,232 bd de Paris,7.0,4.0
430,,43.305346,5.366118,,GoLH3UFuAtBHX3xHquppCg,Big Fernand,"[{'alias': 'burgers', 'title': 'Burgers'}]",791.0,10 place de la Joliette,23.0,3.5
431,,43.31426,5.36971,,IMWvGQh7DyHfsTnWLEdZ7A,Chez Sylvie,"[{'alias': 'french', 'title': 'French'}]",243.0,84 rue de Ruffi,2.0,4.0
432,,43.31548,5.36848,,oFXYPBSdgg5qyz6BxNE0ig,Babel Med Music,"[{'alias': 'festivals', 'title': 'Festivals'}, {'alias': 'localflavor', 'title': 'Local Flavor'}, {'alias': 'musicvenues', 'title': 'Music Venues'}]",335.0,12 rue Urbain V,7.0,3.5
433,,43.306958,5.363688,,B9xJB2cabwM6K2usDLPT_w,Le Roy René,"[{'alias': 'brasseries', 'title': 'Brasseries'}, {'alias': 'seafood', 'title': 'Seafood'}]",707.0,9 quai du Lazaret,11.0,3.5
434,,43.306098991496,5.364997826999,,ugsouNIVclm64oWIF_uK3g,Beef House,"[{'alias': 'tradamerican', 'title': 'American'}, {'alias': 'bbq', 'title': 'Barbeque'}, {'alias': 'burgers', 'title': 'Burgers'}]",741.0,9 quai du Lazaret,33.0,3.0
435,,43.318461,5.379151,,3DChAiRjHJ_GZgL_-BADZw,Coco Loco,"[{'alias': 'burgers', 'title': 'Burgers'}, {'alias': 'pizza', 'title': 'Pizza'}, {'alias': 'tradamerican', 'title': 'American'}]",1101.0,207 boulevard de Plombières,14.0,4.0
436,,43.30466,5.36631,,Bqo2UNcGWXKbzPOkxz1ubQ,La Table de l'Olivier,"[{'alias': 'modern_european', 'title': 'Modern European'}]",972.0,56 Rue Mazenod,29.0,4.5
437,,43.3155241,5.3669746,,7w3qn0GlQXJHyzjzgmaLVw,BO&CO,"[{'alias': 'french', 'title': 'French'}]",237.0,232 bd de Paris,7.0,4.0
438,,43.31548,5.36848,,oFXYPBSdgg5qyz6BxNE0ig,Babel Med Music,"[{'alias': 'festivals', 'title': 'Festivals'}, {'alias': 'localflavor', 'title': 'Local Flavor'}, {'alias': 'musicvenues', 'title': 'Music Venues'}]",218.0,12 rue Urbain V,7.0,3.5
439,,43.31426,5.36971,,IMWvGQh7DyHfsTnWLEdZ7A,Chez Sylvie,"[{'alias': 'french', 'title': 'French'}]",235.0,84 rue de Ruffi,2.0,4.0
440,,43.3090467,5.3664055,,CEaJozrBUgjkCJ-VYnSH2A,Yoj By Yoji,"[{'alias': 'japanese', 'title': 'Japanese'}]",486.0,9 quai du Lazaret,12.0,3.5
441,,43.305346,5.366118,,GoLH3UFuAtBHX3xHquppCg,Big Fernand,"[{'alias': 'burgers', 'title': 'Burgers'}]",897.0,10 place de la Joliette,23.0,3.5
442,,43.306958,5.363688,,B9xJB2cabwM6K2usDLPT_w,Le Roy René,"[{'alias': 'brasseries', 'title': 'Brasseries'}, {'alias': 'seafood', 'title': 'Seafood'}]",765.0,9 quai du Lazaret,11.0,3.5
443,,43.306098991496,5.364997826999,,ugsouNIVclm64oWIF_uK3g,Beef House,"[{'alias': 'tradamerican', 'title': 'American'}, {'alias': 'bbq', 'title': 'Barbeque'}, {'alias': 'burgers', 'title': 'Burgers'}]",827.0,9 quai du Lazaret,33.0,3.0
444,,43.318461,5.379151,,3DChAiRjHJ_GZgL_-BADZw,Coco Loco,"[{'alias': 'burgers', 'title': 'Burgers'}, {'alias': 'pizza', 'title': 'Pizza'}, {'alias': 'tradamerican', 'title': 'American'}]",1128.0,207 boulevard de Plombières,14.0,4.0
445,,43.304821,5.367957,,6maA30spYEhbUyd4IE5qVg,Noodles Chôp,"[{'alias': 'mediterranean', 'title': 'Mediterranean'}, {'alias': 'asianfusion', 'title': 'Asian Fusion'}]",955.0,57 rue de Forbin,3.0,4.5
446,,43.299392,5.366495,,7T5qFvxKuQCtIi7lIWFNUw,Bar des 13 Coins,"[{'alias': 'bars', 'title': 'Bars'}, {'alias': 'cafes', 'title': 'Cafes'}, {'alias': 'mediterranean', 'title': 'Mediterranean'}]",283.0,45 rue Sainte-Françoise,36.0,4.0
447,,43.30466,5.36631,,Bqo2UNcGWXKbzPOkxz1ubQ,La Table de l'Olivier,"[{'alias': 'modern_european', 'title': 'Modern European'}]",302.0,56 Rue Mazenod,29.0,4.5
448,,43.296302648832,5.37139641627038,,B9EDlS5y7zaHUVRFTE5PeA,La Caravelle,"[{'alias': 'bars', 'title': 'Bars'}, {'alias': 'provencal', 'title': 'Provencal'}]",750.0,34 quai du Port,262.0,4.0
449,,43.30096,5.3675,,ErrRpZz1Pk9xo_cGnkh-hw,Le Taxi Brousse,"[{'alias': 'danceclubs', 'title': 'Dance Clubs'}, {'alias': 'african', 'title': 'African'}]",113.0,21 rue Observance,35.0,3.5
450,,43.2977099227985,5.36929702883606,,_HmsDLwMLKrbmndlNQ7ZoQ,Vinonéo,"[{'alias': 'french', 'title': 'French'}, {'alias': 'wine_bars', 'title': 'Wine Bars'}, {'alias': 'mediterranean', 'title': 'Mediterranean'}]",529.0,6 place Daviel,56.0,4.5
451,,43.30245,5.36955,,eKgA2i_Rn_dGkQviJv0C5Q,Le Perroquet Bleu,"[{'alias': 'brasseries', 'title': 'Brasseries'}, {'alias': 'tapasmallplates', 'title': 'Tapas/Small Plates'}]",270.0,72 bd des Dames,24.0,3.5
452,,43.3013659374635,5.3640877982713,,PK7mZ0WjEZVlke3w9k85mw,White Rabbit,"[{'alias': 'pubs', 'title': 'Pubs'}, {'alias': 'lounges', 'title': 'Lounges'}]",188.0,23 quai de la Joliette,22.0,4.5
453,,43.30013,5.36777,,j62tK8kS8TigYmhO_IxC4Q,Centre de la Vieille Charité,"[{'alias': 'landmarks', 'title': 'Landmarks & Historical Buildings'}, {'alias': 'museums', 'title': 'Museums'}]",237.0,2 rue de la Charité,47.0,4.5
454,,43.3000104571308,5.36852718837072,,jYZmWiY5hdvlzJOHD7Eoow,Le Clan des Cigales,"[{'alias': 'mediterranean', 'title': 'Mediterranean'}]",280.0,8 rue Petit Puits,18.0,4.0
455,,43.302133,5.365963,,axik6Dwh3extfpfUaRz3Qw,L'Anse du Panier,"[{'alias': 'french', 'title': 'French'}, {'alias': 'bars', 'title': 'Bars'}]",33.0,16 rue Jean François Lecas,5.0,4.5
456,,43.295589,5.379063,,EfMabFwgjmWoUibT1DMMzw,Sauveur,"[{'alias': 'pizza', 'title': 'Pizza'}]",814.0,10 rue d'Aubagne,132.0,4.5
457,,43.296302648832,5.37139641627038,,B9EDlS5y7zaHUVRFTE5PeA,La Caravelle,"[{'alias': 'bars', 'title': 'Bars'}, {'alias': 'provencal', 'title': 'Provencal'}]",858.0,34 quai du Port,262.0,4.0
458,,43.29952,5.37744,,nrxYjkyHSklYcUv4VaNnfg,Le Grain de Sable,"[{'alias': 'vegetarian', 'title': 'Vegetarian'}, {'alias': 'french', 'title': 'French'}]",363.0,34 Rue Baignoir,47.0,4.5
459,,43.2972899,5.38546,,wwcX2d_9rQmz9OzUQEVFHw,Le Cercle Rouge,"[{'alias': 'tapas', 'title': 'Tapas Bars'}, {'alias': 'corsican', 'title': 'Corsican'}, {'alias': 'cocktailbars', 'title': 'Cocktail Bars'}]",908.0,41 rue Adolphe Thiers,65.0,4.5
460,,43.29424,5.384759,,qzI9sQ6vToMDi_RGk9W13w,Ummagumma,"[{'alias': 'french', 'title': 'French'}, {'alias': 'tapasmallplates', 'title': 'Tapas/Small Plates'}]",1131.0,26 rue des Trois Rois,78.0,4.5
461,,43.3009903,5.3881795,,dgIFNUTyd6ZbWGyTJFyAnQ,La Cantine de Nour d'Egypte,"[{'alias': 'egyptian', 'title': 'Egyptian'}]",913.0,10 rue Bernex,23.0,4.5
462,,43.2977099227985,5.36929702883606,,_HmsDLwMLKrbmndlNQ7ZoQ,Vinonéo,"[{'alias': 'french', 'title': 'French'}, {'alias': 'wine_bars', 'title': 'Wine Bars'}, {'alias': 'mediterranean', 'title': 'Mediterranean'}]",850.0,6 place Daviel,56.0,4.5
463,,43.29443,5.38383,,4q-slQPktkv3bVPV4qrATg,Café Vian,"[{'alias': 'wine_bars', 'title': 'Wine Bars'}, {'alias': 'provencal', 'title': 'Provencal'}, {'alias': 'bbq', 'title': 'Barbeque'}]",1074.0,12 rue Vian,119.0,4.5
464,,43.29405,5.38541,,8aaP45FDUXeJhXKyPIvSfg,Casa No Name,"[{'alias': 'french', 'title': 'French'}, {'alias': 'mediterranean', 'title': 'Mediterranean'}]",1178.0,7 rue André Poggioli,30.0,4.5
465,,43.3017342,5.3805139,,DNfGb5EYTP4HloTO6bWghg,Viens Attendre,"[{'alias': 'cafes', 'title': 'Cafes'}]",295.0,Quai A,13.0,4.0
466,,43.30466,5.36631,,Bqo2UNcGWXKbzPOkxz1ubQ,La Table de l'Olivier,"[{'alias': 'modern_european', 'title': 'Modern European'}]",114.0,56 Rue Mazenod,29.0,4.5
467,,43.305346,5.366118,,GoLH3UFuAtBHX3xHquppCg,Big Fernand,"[{'alias': 'burgers', 'title': 'Burgers'}]",99.0,10 place de la Joliette,23.0,3.5
468,,43.2977099227985,5.36929702883606,,_HmsDLwMLKrbmndlNQ7ZoQ,Vinonéo,"[{'alias': 'french', 'title': 'French'}, {'alias': 'wine_bars', 'title': 'Wine Bars'}, {'alias': 'mediterranean', 'title': 'Mediterranean'}]",866.0,6 place Daviel,56.0,4.5
469,,43.30245,5.36955,,eKgA2i_Rn_dGkQviJv0C5Q,Le Perroquet Bleu,"[{'alias': 'brasseries', 'title': 'Brasseries'}, {'alias': 'tapasmallplates', 'title': 'Tapas/Small Plates'}]",370.0,72 bd des Dames,24.0,3.5
470,,43.306098991496,5.364997826999,,ugsouNIVclm64oWIF_uK3g,Beef House,"[{'alias': 'tradamerican', 'title': 'American'}, {'alias': 'bbq', 'title': 'Barbeque'}, {'alias': 'burgers', 'title': 'Burgers'}]",206.0,9 quai du Lazaret,33.0,3.0
471,,43.30096,5.3675,,ErrRpZz1Pk9xo_cGnkh-hw,Le Taxi Brousse,"[{'alias': 'danceclubs', 'title': 'Dance Clubs'}, {'alias': 'african', 'title': 'African'}]",435.0,21 rue Observance,35.0,3.5
472,,43.304821,5.367957,,6maA30spYEhbUyd4IE5qVg,Noodles Chôp,"[{'alias': 'mediterranean', 'title': 'Mediterranean'}, {'alias': 'asianfusion', 'title': 'Asian Fusion'}]",78.0,57 rue de Forbin,3.0,4.5
473,,43.30576,5.36753,,tSWeY1uO8pdOaXVwBo_6EQ,Frac Paca,"[{'alias': 'museums', 'title': 'Museums'}]",32.0,20 bd de Dunkerque,5.0,5.0
474,,43.2963958166187,5.37366704830174,,CSFc59c3-zGbD-cwFa1pSA,Une Table au Sud,"[{'alias': 'mediterranean', 'title': 'Mediterranean'}]",1121.0,1 Rue République,48.0,4.0
475,,43.3060246048047,5.36612899161605,,gFfkMqE-1QKYlL5z6wn8Aw,Ambassade de Bretagne,"[{'alias': 'breakfast_brunch', 'title': 'Breakfast & Brunch'}, {'alias': 'brasseries', 'title': 'Brasseries'}]",122.0,10 place de la Joliette,10.0,3.5
476,,43.30466,5.36631,,Bqo2UNcGWXKbzPOkxz1ubQ,La Table de l'Olivier,"[{'alias': 'modern_european', 'title': 'Modern European'}]",127.0,56 Rue Mazenod,29.0,4.5
477,,43.305346,5.366118,,GoLH3UFuAtBHX3xHquppCg,Big Fernand,"[{'alias': 'burgers', 'title': 'Burgers'}]",54.0,10 place de la Joliette,23.0,3.5
478,,43.305619,5.365965,,v3ARNIjwH6Ik10XugtoG6Q,Le Comptoir des Docks,"[{'alias': 'tapasmallplates', 'title': 'Tapas/Small Plates'}]",26.0,10 place de la Joliette,7.0,4.0
479,,43.2977099227985,5.36929702883606,,_HmsDLwMLKrbmndlNQ7ZoQ,Vinonéo,"[{'alias': 'french', 'title': 'French'}, {'alias': 'wine_bars', 'title': 'Wine Bars'}, {'alias': 'mediterranean', 'title': 'Mediterranean'}]",936.0,6 place Daviel,56.0,4.5
480,,43.305445,5.365944,,zUWu8E2YlREA5Dg56Z7uXw,Panasia,"[{'alias': 'panasian', 'title': 'Pan Asian'}]",37.0,10 place de la Joliette,6.0,3.5
481,,43.306098991496,5.364997826999,,ugsouNIVclm64oWIF_uK3g,Beef House,"[{'alias': 'tradamerican', 'title': 'American'}, {'alias': 'bbq', 'title': 'Barbeque'}, {'alias': 'burgers', 'title': 'Burgers'}]",68.0,9 quai du Lazaret,33.0,3.0
482,,43.3055973,5.36605242394262,,PaMd0KcHcRNIIPW0tmIe0Q,Be Organic - Be O,"[{'alias': 'vegan', 'title': 'Vegan'}, {'alias': 'wine_bars', 'title': 'Wine Bars'}, {'alias': 'delicatessen', 'title': 'Delicatessen'}]",34.0,10 place de la Joliette,4.0,3.5
483,,43.306958,5.363688,,B9xJB2cabwM6K2usDLPT_w,Le Roy René,"[{'alias': 'brasseries', 'title': 'Brasseries'}, {'alias': 'seafood', 'title': 'Seafood'}]",211.0,9 quai du Lazaret,11.0,3.5
484,,43.3060246048047,5.36612899161605,,gFfkMqE-1QKYlL5z6wn8Aw,Ambassade de Bretagne,"[{'alias': 'breakfast_brunch', 'title': 'Breakfast & Brunch'}, {'alias': 'brasseries', 'title': 'Brasseries'}]",52.0,10 place de la Joliette,10.0,3.5
485,,43.29952,5.37744,,nrxYjkyHSklYcUv4VaNnfg,Le Grain de Sable,"[{'alias': 'vegetarian', 'title': 'Vegetarian'}, {'alias': 'french', 'title': 'French'}]",1175.0,34 Rue Baignoir,47.0,4.5
486,,43.295589,5.379063,,EfMabFwgjmWoUibT1DMMzw,Sauveur,"[{'alias': 'pizza', 'title': 'Pizza'}]",1002.0,10 rue d'Aubagne,132.0,4.5
487,,43.296302648832,5.37139641627038,,B9EDlS5y7zaHUVRFTE5PeA,La Caravelle,"[{'alias': 'bars', 'title': 'Bars'}, {'alias': 'provencal', 'title': 'Provencal'}]",1110.0,34 quai du Port,262.0,4.0
488,,43.2972899,5.38546,,wwcX2d_9rQmz9OzUQEVFHw,Le Cercle Rouge,"[{'alias': 'tapas', 'title': 'Tapas Bars'}, {'alias': 'corsican', 'title': 'Corsican'}, {'alias': 'cocktailbars', 'title': 'Cocktail Bars'}]",965.0,41 rue Adolphe Thiers,65.0,4.5
489,,43.3009903,5.3881795,,dgIFNUTyd6ZbWGyTJFyAnQ,La Cantine de Nour d'Egypte,"[{'alias': 'egyptian', 'title': 'Egyptian'}]",842.0,10 rue Bernex,23.0,4.5
490,,43.2977099227985,5.36929702883606,,_HmsDLwMLKrbmndlNQ7ZoQ,Vinonéo,"[{'alias': 'french', 'title': 'French'}, {'alias': 'wine_bars', 'title': 'Wine Bars'}, {'alias': 'mediterranean', 'title': 'Mediterranean'}]",1099.0,6 place Daviel,56.0,4.5
491,,43.29952,5.37744,,nrxYjkyHSklYcUv4VaNnfg,Le Grain de Sable,"[{'alias': 'vegetarian', 'title': 'Vegetarian'}, {'alias': 'french', 'title': 'French'}]",579.0,34 Rue Baignoir,47.0,4.5
492,,43.2963958166187,5.37366704830174,,CSFc59c3-zGbD-cwFa1pSA,Une Table au Sud,"[{'alias': 'mediterranean', 'title': 'Mediterranean'}]",1010.0,1 Rue République,48.0,4.0
493,,43.3017342,5.3805139,,DNfGb5EYTP4HloTO6bWghg,Viens Attendre,"[{'alias': 'cafes', 'title': 'Cafes'}]",341.0,Quai A,13.0,4.0
494,,43.296061,5.36774,,hzeFLbv6RsGfVB3C9MJ5Nw,Carmine,"[{'alias': 'italian', 'title': 'Italian'}]",1317.0,134 quai du Port,54.0,4.0
495,,43.300773,5.38212,,ZAHTxYqDTbORoZ6I7G9aGw,La Manne,"[{'alias': 'french', 'title': 'French'}, {'alias': 'mediterranean', 'title': 'Mediterranean'}]",494.0,18 boulevard de la Liberté,12.0,4.5
496,,43.30466,5.36631,,Bqo2UNcGWXKbzPOkxz1ubQ,La Table de l'Olivier,"[{'alias': 'modern_european', 'title': 'Modern European'}]",657.0,56 Rue Mazenod,29.0,4.5
497,,43.30096,5.3675,,ErrRpZz1Pk9xo_cGnkh-hw,Le Taxi Brousse,"[{'alias': 'danceclubs', 'title': 'Dance Clubs'}, {'alias': 'african', 'title': 'African'}]",910.0,21 rue Observance,35.0,3.5
498,,43.3137,5.3795,,mCeyZXqQpeAJwN0AuGx8aQ,Friterie Werner & Co,"[{'alias': 'belgian', 'title': 'Belgian'}, {'alias': 'hotdogs', 'title': 'Fast Food'}]",811.0,9 Rue Guy Mocquet,30.0,4.0
499,,43.30013,5.36777,,j62tK8kS8TigYmhO_IxC4Q,Centre de la Vieille Charité,"[{'alias': 'landmarks', 'title': 'Landmarks & Historical Buildings'}, {'alias': 'museums', 'title': 'Museums'}]",1036.0,2 rue de la Charité,47.0,4.5
500,,43.30245,5.36955,,eKgA2i_Rn_dGkQviJv0C5Q,Le Perroquet Bleu,"[{'alias': 'brasseries', 'title': 'Brasseries'}, {'alias': 'tapasmallplates', 'title': 'Tapas/Small Plates'}]",754.0,72 bd des Dames,24.0,3.5
501,,43.300773,5.38212,,ZAHTxYqDTbORoZ6I7G9aGw,La Manne,"[{'alias': 'french', 'title': 'French'}, {'alias': 'mediterranean', 'title': 'Mediterranean'}]",1242.0,18 boulevard de la Liberté,12.0,4.5
502,,43.3090467,5.3664055,,CEaJozrBUgjkCJ-VYnSH2A,Yoj By Yoji,"[{'alias': 'japanese', 'title': 'Japanese'}]",435.0,9 quai du Lazaret,12.0,3.5
503,,43.3013659374635,5.3640877982713,,PK7mZ0WjEZVlke3w9k85mw,White Rabbit,"[{'alias': 'pubs', 'title': 'Pubs'}, {'alias': 'lounges', 'title': 'Lounges'}]",1055.0,23 quai de la Joliette,22.0,4.5
504,,43.305346,5.366118,,GoLH3UFuAtBHX3xHquppCg,Big Fernand,"[{'alias': 'burgers', 'title': 'Burgers'}]",615.0,10 place de la Joliette,23.0,3.5
505,,43.30129,5.3804299,,cqPoBlnDebEHD39e_P6GeQ,Le Grand Escalier,"[{'alias': 'brasseries', 'title': 'Brasseries'}]",1103.0,39 boulevard d'Athènes,9.0,4.5
506,,43.3137,5.3795,,mCeyZXqQpeAJwN0AuGx8aQ,Friterie Werner & Co,"[{'alias': 'belgian', 'title': 'Belgian'}, {'alias': 'hotdogs', 'title': 'Fast Food'}]",324.0,9 Rue Guy Mocquet,30.0,4.0
507,,43.30466,5.36631,,Bqo2UNcGWXKbzPOkxz1ubQ,La Table de l'Olivier,"[{'alias': 'modern_european', 'title': 'Modern European'}]",1163.0,56 Rue Mazenod,29.0,4.5
508,,43.3107213,5.3871257,,pIT6-LSvd5nyy8jgG6Q1sA,La Cantine du Midi,"[{'alias': 'french', 'title': 'French'}]",770.0,36 rue Bernard,10.0,4.5
509,,43.311361,5.387022,,5vvx5WF37bIswDIasxuRHw,Rouge Belle de Mai,"[{'alias': 'french', 'title': 'French'}, {'alias': 'jazzandblues', 'title': 'Jazz & Blues'}]",760.0,47 rue Fortuné Jourdan,19.0,4.5
510,,43.30245,5.36955,,eKgA2i_Rn_dGkQviJv0C5Q,Le Perroquet Bleu,"[{'alias': 'brasseries', 'title': 'Brasseries'}, {'alias': 'tapasmallplates', 'title': 'Tapas/Small Plates'}]",1165.0,72 bd des Dames,24.0,3.5
511,,43.302143,5.38954,,JNVckjqRzuToK65LU-5P8Q,Teavora,"[{'alias': 'tea', 'title': 'Tea Rooms'}, {'alias': 'shopping', 'title': 'Shopping'}, {'alias': 'restaurants', 'title': 'Restaurants'}]",1388.0,65 boulevard Longchamp,97.0,4.0
512,,43.305346,5.366118,,GoLH3UFuAtBHX3xHquppCg,Big Fernand,"[{'alias': 'burgers', 'title': 'Burgers'}]",1131.0,10 place de la Joliette,23.0,3.5
513,,43.31123,5.37802,,s-hXjSVMuw9AB_lG4RBfaA,Bar du Moulin,"[{'alias': 'bars', 'title': 'Bars'}]",34.0,8 Rue Loubon,1.0,2.0
514,,43.318461,5.379151,,3DChAiRjHJ_GZgL_-BADZw,Coco Loco,"[{'alias': 'burgers', 'title': 'Burgers'}, {'alias': 'pizza', 'title': 'Pizza'}, {'alias': 'tradamerican', 'title': 'American'}]",825.0,207 boulevard de Plombières,14.0,4.0
515,,43.3029921,5.3697897,,qnaHAeR1J6xskJvU4zzRrg,MundArt,"[{'alias': 'venues', 'title': 'Venues & Event Spaces'}, {'alias': 'galleries', 'title': 'Art Galleries'}, {'alias': 'panasian', 'title': 'Pan Asian'}]",1104.0,70-72 rue de la Joliette,12.0,3.5
516,,43.3137,5.3795,,mCeyZXqQpeAJwN0AuGx8aQ,Friterie Werner & Co,"[{'alias': 'belgian', 'title': 'Belgian'}, {'alias': 'hotdogs', 'title': 'Fast Food'}]",532.0,9 Rue Guy Mocquet,30.0,4.0
517,,43.3137703,5.3744702,,2d1O0WZuP7PQcfQjhtV2nw,Hfc,"[{'alias': 'hotdogs', 'title': 'Fast Food'}]",32.0,356 métro national,4.0,3.5
518,,43.31471,5.37307,,fuygU_TpGcYviBtAqferkA,Le Fournil National,"[{'alias': 'bakeries', 'title': 'Bakeries'}]",33.0,386 bd National,1.0,3.0
519,,43.31426,5.36971,,IMWvGQh7DyHfsTnWLEdZ7A,Chez Sylvie,"[{'alias': 'french', 'title': 'French'}]",281.0,84 rue de Ruffi,2.0,4.0
520,,43.318461,5.379151,,3DChAiRjHJ_GZgL_-BADZw,Coco Loco,"[{'alias': 'burgers', 'title': 'Burgers'}, {'alias': 'pizza', 'title': 'Pizza'}, {'alias': 'tradamerican', 'title': 'American'}]",635.0,207 boulevard de Plombières,14.0,4.0
521,,43.3155241,5.3669746,,7w3qn0GlQXJHyzjzgmaLVw,BO&CO,"[{'alias': 'french', 'title': 'French'}]",502.0,232 bd de Paris,7.0,4.0
522,,43.306958,5.363688,,B9xJB2cabwM6K2usDLPT_w,Le Roy René,"[{'alias': 'brasseries', 'title': 'Brasseries'}, {'alias': 'seafood', 'title': 'Seafood'}]",1158.0,9 quai du Lazaret,11.0,3.5
523,,43.306098991496,5.364997826999,,ugsouNIVclm64oWIF_uK3g,Beef House,"[{'alias': 'tradamerican', 'title': 'American'}, {'alias': 'bbq', 'title': 'Barbeque'}, {'alias': 'burgers', 'title': 'Burgers'}]",1169.0,9 quai du Lazaret,33.0,3.0
524,,43.3090467,5.3664055,,CEaJozrBUgjkCJ-VYnSH2A,Yoj By Yoji,"[{'alias': 'japanese', 'title': 'Japanese'}]",839.0,9 quai du Lazaret,12.0,3.5
525,,43.31548,5.36848,,oFXYPBSdgg5qyz6BxNE0ig,Babel Med Music,"[{'alias': 'festivals', 'title': 'Festivals'}, {'alias': 'localflavor', 'title': 'Local Flavor'}, {'alias': 'musicvenues', 'title': 'Music Venues'}]",414.0,12 rue Urbain V,7.0,3.5
526,,43.311361,5.387022,,5vvx5WF37bIswDIasxuRHw,Rouge Belle de Mai,"[{'alias': 'french', 'title': 'French'}, {'alias': 'jazzandblues', 'title': 'Jazz & Blues'}]",44.0,47 rue Fortuné Jourdan,19.0,4.5
527,,43.310342440269,5.39016813491821,,H1o9mtPjC0If1citMNTBVw,Les Grandes Tables,"[{'alias': 'french', 'title': 'French'}]",281.0,41 rue Jobin,58.0,3.5
528,,43.3107213,5.3871257,,pIT6-LSvd5nyy8jgG6Q1sA,La Cantine du Midi,"[{'alias': 'french', 'title': 'French'}]",111.0,36 rue Bernard,10.0,4.5
529,,43.30304,5.39733,,moqTbZsBc6V1Z_6hZ1utoQ,La Table Cinq,"[{'alias': 'french', 'title': 'French'}]",1264.0,8 avenue des Chartreux,45.0,4.5
530,,43.304251217793,5.3943953234515,,I_GTBZ74Wb9DOQg-itmGaA,Palais Longchamp,"[{'alias': 'museums', 'title': 'Museums'}]",1012.0,Place Henri Dunant,81.0,4.5
531,,43.3137,5.3795,,mCeyZXqQpeAJwN0AuGx8aQ,Friterie Werner & Co,"[{'alias': 'belgian', 'title': 'Belgian'}, {'alias': 'hotdogs', 'title': 'Fast Food'}]",664.0,9 Rue Guy Mocquet,30.0,4.0
532,,43.3118666,5.3864447,,DilvFuQdcWswnv8B4JlTlg,Pâtisserie B et F Giner La Gourmandine,"[{'alias': 'bakeries', 'title': 'Bakeries'}]",66.0,8 Place Bernard Cadenat,6.0,5.0
533,,43.31263,5.3864,,m2WDXu6r-o8Gc1RyHq54Ag,Chez Claire,"[{'alias': 'seafood', 'title': 'Seafood'}]",112.0,12 rue d'Orange,4.0,4.5
534,,43.3096313,5.3903298,,RKtsI54LAZK8uGwYev225w,La Salle des Machines,"[{'alias': 'cafes', 'title': 'Cafes'}, {'alias': 'bookstores', 'title': 'Bookstores'}, {'alias': 'sandwiches', 'title': 'Sandwiches'}]",280.0,41 rue Jobin,5.0,3.5
535,,43.315776,5.39864,,2vB1EaigawOJsblnrhQdXA,Restaurant des Chutes Lavie,"[{'alias': 'french', 'title': 'French'}]",1026.0,45 avenue des Chutes Lavie,17.0,4.0
536,,43.310342440269,5.39016813491821,,H1o9mtPjC0If1citMNTBVw,Les Grandes Tables,"[{'alias': 'french', 'title': 'French'}]",84.0,41 rue Jobin,58.0,3.5
537,,43.3107213,5.3871257,,pIT6-LSvd5nyy8jgG6Q1sA,La Cantine du Midi,"[{'alias': 'french', 'title': 'French'}]",283.0,36 rue Bernard,10.0,4.5
538,,43.311361,5.387022,,5vvx5WF37bIswDIasxuRHw,Rouge Belle de Mai,"[{'alias': 'french', 'title': 'French'}, {'alias': 'jazzandblues', 'title': 'Jazz & Blues'}]",327.0,47 rue Fortuné Jourdan,19.0,4.5
539,,43.3009903,5.3881795,,dgIFNUTyd6ZbWGyTJFyAnQ,La Cantine de Nour d'Egypte,"[{'alias': 'egyptian', 'title': 'Egyptian'}]",970.0,10 rue Bernex,23.0,4.5
540,,43.30304,5.39733,,moqTbZsBc6V1Z_6hZ1utoQ,La Table Cinq,"[{'alias': 'french', 'title': 'French'}]",927.0,8 avenue des Chartreux,45.0,4.5
541,,43.304251217793,5.3943953234515,,I_GTBZ74Wb9DOQg-itmGaA,Palais Longchamp,"[{'alias': 'museums', 'title': 'Museums'}]",681.0,Place Henri Dunant,81.0,4.5
542,,43.30753,5.3872,,bpkiPalGJGKcPieQIIeeXQ,Studio 37,"[{'alias': 'french', 'title': 'French'}]",57.0,37 rue Guibal,25.0,3.0
543,,43.30155,5.38749,,P__7FBiVbpZn4Wgf9qOnzw,Le Débouché,"[{'alias': 'wine_bars', 'title': 'Wine Bars'}, {'alias': 'french', 'title': 'French'}]",915.0,3 bd National,20.0,4.5
544,,43.30094,5.39844,,akqoNKGIK_ft4Bad0qkRbA,Coté Sud,"[{'alias': 'french', 'title': 'French'}, {'alias': 'italian', 'title': 'Italian'}]",1167.0,28 rue Maréchal Fayolle,46.0,4.5
545,,43.3137,5.3795,,mCeyZXqQpeAJwN0AuGx8aQ,Friterie Werner & Co,"[{'alias': 'belgian', 'title': 'Belgian'}, {'alias': 'hotdogs', 'title': 'Fast Food'}]",983.0,9 Rue Guy Mocquet,30.0,4.0
546,,43.30304,5.39733,,moqTbZsBc6V1Z_6hZ1utoQ,La Table Cinq,"[{'alias': 'french', 'title': 'French'}]",142.0,8 avenue des Chartreux,45.0,4.5
547,,43.2972899,5.38546,,wwcX2d_9rQmz9OzUQEVFHw,Le Cercle Rouge,"[{'alias': 'tapas', 'title': 'Tapas Bars'}, {'alias': 'corsican', 'title': 'Corsican'}, {'alias': 'cocktailbars', 'title': 'Cocktail Bars'}]",1245.0,41 rue Adolphe Thiers,65.0,4.5
548,,43.304251217793,5.3943953234515,,I_GTBZ74Wb9DOQg-itmGaA,Palais Longchamp,"[{'alias': 'museums', 'title': 'Museums'}]",252.0,Place Henri Dunant,81.0,4.5
549,,43.3009903,5.3881795,,dgIFNUTyd6ZbWGyTJFyAnQ,La Cantine de Nour d'Egypte,"[{'alias': 'egyptian', 'title': 'Egyptian'}]",838.0,10 rue Bernex,23.0,4.5
550,,43.30201,5.39782,,qo-RA8bUjBfEXS12QKMWYQ,Greendeliss,"[{'alias': 'desserts', 'title': 'Desserts'}, {'alias': 'salad', 'title': 'Salad'}, {'alias': 'soup', 'title': 'Soup'}]",248.0,11 avenue du Maréchal Foch,13.0,4.0
551,,43.30384,5.39707,,XEuh83BPsWmu3UouK7yKvg,La Fournée d'Inès,"[{'alias': 'bakeries', 'title': 'Bakeries'}]",60.0,2 Boulevard Jardin Zoologique,25.0,4.0
552,,43.3036385,5.3976998,,R2-tSJ65RV83w72w48372Q,Riz D'or,"[{'alias': 'chinese', 'title': 'Chinese'}]",74.0,21 ave des Chartreux,21.0,4.5
553,,43.30004,5.39683,,cKF1UxrhAmsQWwYTjOM0QQ,Le Jardin des Arts,"[{'alias': 'french', 'title': 'French'}]",474.0,53 Rue Marx Dormoy,57.0,4.0
554,,43.30094,5.39844,,akqoNKGIK_ft4Bad0qkRbA,Coté Sud,"[{'alias': 'french', 'title': 'French'}, {'alias': 'italian', 'title': 'Italian'}]",378.0,28 rue Maréchal Fayolle,46.0,4.5
555,,43.304587,5.394667,,cRADeb52wDS3NbR_8tdvHg,Parc Longchamp,"[{'alias': 'parks', 'title': 'Parks'}]",232.0,Boulevard Jardin Zoologique,22.0,4.0
556,,43.3009903,5.3881795,,dgIFNUTyd6ZbWGyTJFyAnQ,La Cantine de Nour d'Egypte,"[{'alias': 'egyptian', 'title': 'Egyptian'}]",1122.0,10 rue Bernex,23.0,4.5
557,,43.310342440269,5.39016813491821,,H1o9mtPjC0If1citMNTBVw,Les Grandes Tables,"[{'alias': 'french', 'title': 'French'}]",536.0,41 rue Jobin,58.0,3.5
558,,43.30304,5.39733,,moqTbZsBc6V1Z_6hZ1utoQ,La Table Cinq,"[{'alias': 'french', 'title': 'French'}]",673.0,8 avenue des Chartreux,45.0,4.5
559,,43.304251217793,5.3943953234515,,I_GTBZ74Wb9DOQg-itmGaA,Palais Longchamp,"[{'alias': 'museums', 'title': 'Museums'}]",559.0,Place Henri Dunant,81.0,4.5
560,,43.30004,5.39683,,cKF1UxrhAmsQWwYTjOM0QQ,Le Jardin des Arts,"[{'alias': 'french', 'title': 'French'}]",1000.0,53 Rue Marx Dormoy,57.0,4.0
561,,43.307536,5.402811,,i5msKAStsaRnliDkj4fgww,Liban Express,"[{'alias': 'lebanese', 'title': 'Lebanese'}]",533.0,12 boulevard de Roux,10.0,4.5
562,,43.311361,5.387022,,5vvx5WF37bIswDIasxuRHw,Rouge Belle de Mai,"[{'alias': 'french', 'title': 'French'}, {'alias': 'jazzandblues', 'title': 'Jazz & Blues'}]",812.0,47 rue Fortuné Jourdan,19.0,4.5
563,,43.3107213,5.3871257,,pIT6-LSvd5nyy8jgG6Q1sA,La Cantine du Midi,"[{'alias': 'french', 'title': 'French'}]",784.0,36 rue Bernard,10.0,4.5
564,,43.30094,5.39844,,akqoNKGIK_ft4Bad0qkRbA,Coté Sud,"[{'alias': 'french', 'title': 'French'}, {'alias': 'italian', 'title': 'Italian'}]",913.0,28 rue Maréchal Fayolle,46.0,4.5
565,,43.30155,5.38749,,P__7FBiVbpZn4Wgf9qOnzw,Le Débouché,"[{'alias': 'wine_bars', 'title': 'Wine Bars'}, {'alias': 'french', 'title': 'French'}]",1107.0,3 bd National,20.0,4.5
566,,43.30304,5.39733,,moqTbZsBc6V1Z_6hZ1utoQ,La Table Cinq,"[{'alias': 'french', 'title': 'French'}]",284.0,8 avenue des Chartreux,45.0,4.5
567,,43.30094,5.39844,,akqoNKGIK_ft4Bad0qkRbA,Coté Sud,"[{'alias': 'french', 'title': 'French'}, {'alias': 'italian', 'title': 'Italian'}]",277.0,28 rue Maréchal Fayolle,46.0,4.5
568,,43.30201,5.39782,,qo-RA8bUjBfEXS12QKMWYQ,Greendeliss,"[{'alias': 'desserts', 'title': 'Desserts'}, {'alias': 'salad', 'title': 'Salad'}, {'alias': 'soup', 'title': 'Soup'}]",250.0,11 avenue du Maréchal Foch,13.0,4.0
569,,43.30004,5.39683,,cKF1UxrhAmsQWwYTjOM0QQ,Le Jardin des Arts,"[{'alias': 'french', 'title': 'French'}]",440.0,53 Rue Marx Dormoy,57.0,4.0
570,,43.2987,5.39882,,GzKciMU844-pvb_DUMLMJA,Café Zenji,"[{'alias': 'coffee', 'title': 'Coffee & Tea'}, {'alias': 'japanese', 'title': 'Japanese'}, {'alias': 'panasian', 'title': 'Pan Asian'}]",478.0,24 rue Granoux,23.0,4.5
571,,43.30087,5.40033,,ezbHzREkHdlNae51Z6tloA,Kim-Do,"[{'alias': 'japanese', 'title': 'Japanese'}]",221.0,4 rue Capazza,155.0,4.0
572,,43.3027572081859,5.40046930290225,,ZiYwbdpN69vg8bFSkps5RQ,Subway,"[{'alias': 'hotdogs', 'title': 'Fast Food'}, {'alias': 'sandwiches', 'title': 'Sandwiches'}]",26.0,64 boulevard de la Blancarde,1.0,4.0
573,,43.304251217793,5.3943953234515,,I_GTBZ74Wb9DOQg-itmGaA,Palais Longchamp,"[{'alias': 'museums', 'title': 'Museums'}]",543.0,Place Henri Dunant,81.0,4.5
574,,43.3004,5.39844,,44UVBhdi6b3886fnv4V9HA,La Jonque Viet,"[{'alias': 'chinese', 'title': 'Chinese'}]",324.0,28 rue Maréchal Fayolle,19.0,4.0
575,,43.3036385,5.3976998,,R2-tSJ65RV83w72w48372Q,Riz D'or,"[{'alias': 'chinese', 'title': 'Chinese'}]",264.0,21 ave des Chartreux,21.0,4.5
576,,43.315776,5.39864,,2vB1EaigawOJsblnrhQdXA,Restaurant des Chutes Lavie,"[{'alias': 'french', 'title': 'French'}]",312.0,45 avenue des Chutes Lavie,17.0,4.0
577,,43.310342440269,5.39016813491821,,H1o9mtPjC0If1citMNTBVw,Les Grandes Tables,"[{'alias': 'french', 'title': 'French'}]",631.0,41 rue Jobin,58.0,3.5
578,,43.304251217793,5.3943953234515,,I_GTBZ74Wb9DOQg-itmGaA,Palais Longchamp,"[{'alias': 'museums', 'title': 'Museums'}]",1024.0,Place Henri Dunant,81.0,4.5
579,,43.307536,5.402811,,i5msKAStsaRnliDkj4fgww,Liban Express,"[{'alias': 'lebanese', 'title': 'Lebanese'}]",801.0,12 boulevard de Roux,10.0,4.5
580,,43.311361,5.387022,,5vvx5WF37bIswDIasxuRHw,Rouge Belle de Mai,"[{'alias': 'french', 'title': 'French'}, {'alias': 'jazzandblues', 'title': 'Jazz & Blues'}]",822.0,47 rue Fortuné Jourdan,19.0,4.5
581,,43.3107213,5.3871257,,pIT6-LSvd5nyy8jgG6Q1sA,La Cantine du Midi,"[{'alias': 'french', 'title': 'French'}]",836.0,36 rue Bernard,10.0,4.5
582,,43.3169975726422,5.40710806846619,,WZTiXu82gQ8dMlTZIJsbUg,Capo Rosso,"[{'alias': 'french', 'title': 'French'}]",927.0,30 bd Verd,14.0,4.0
583,,43.304587,5.394667,,cRADeb52wDS3NbR_8tdvHg,Parc Longchamp,"[{'alias': 'parks', 'title': 'Parks'}]",983.0,Boulevard Jardin Zoologique,22.0,4.0
584,,43.31109,5.39326,,GapLGF9QLaN2tIyGbK3WGQ,Les Deux Soeurs,"[{'alias': 'mediterranean', 'title': 'Mediterranean'}]",381.0,48 rue Pautrier,10.0,3.5
585,,43.30579,5.39303,,V912KSWdrHEHpkmKyBXZ7w,Le Capriccio,"[{'alias': 'pizza', 'title': 'Pizza'}, {'alias': 'italian', 'title': 'Italian'}]",886.0,70 bd Camille Flammarion,28.0,4.0
586,,43.307536,5.402811,,i5msKAStsaRnliDkj4fgww,Liban Express,"[{'alias': 'lebanese', 'title': 'Lebanese'}]",231.0,12 boulevard de Roux,10.0,4.5
587,,43.30909,5.40176,,AVvSt_qcAwG-5w8d135C2A,Hong-Kong  2,"[{'alias': 'vietnamese', 'title': 'Vietnamese'}]",39.0,2 Place Edmond Audran,4.0,4.0
588,,43.30304,5.39733,,moqTbZsBc6V1Z_6hZ1utoQ,La Table Cinq,"[{'alias': 'french', 'title': 'French'}]",783.0,8 avenue des Chartreux,45.0,4.5
589,,43.309652,5.4012558,,KZzr2vUiti7_Vg4BTmml7g,Cérealia,"[{'alias': 'bakeries', 'title': 'Bakeries'}]",34.0,7 Place Edmond Audran,4.0,4.0
590,,43.3083401,5.40016,,inAqpa84d0Eb5-roUjAThg,La Table de Guy Bistro Créole,"[{'alias': 'caribbean', 'title': 'Caribbean'}, {'alias': 'tapasmallplates', 'title': 'Tapas/Small Plates'}]",154.0,145 ave des Chartreux,10.0,3.0
591,,43.30963,5.4013799,,GaS_UZt0GulCXJT01ErswQ,Céréalia,"[{'alias': 'bakeries', 'title': 'Bakeries'}]",38.0,7 place Edmond Audran,8.0,3.0
592,,43.304251217793,5.3943953234515,,I_GTBZ74Wb9DOQg-itmGaA,Palais Longchamp,"[{'alias': 'museums', 'title': 'Museums'}]",806.0,Place Henri Dunant,81.0,4.5
593,,43.310342440269,5.39016813491821,,H1o9mtPjC0If1citMNTBVw,Les Grandes Tables,"[{'alias': 'french', 'title': 'French'}]",919.0,41 rue Jobin,58.0,3.5
594,,43.30923,5.40144,,QkrQpW_X7CV56-kkrBcdbw,Le Bistrot Marseillais,"[{'alias': 'bistros', 'title': 'Bistros'}]",15.0,49 bd Arras,5.0,3.5
595,,43.30094,5.39844,,akqoNKGIK_ft4Bad0qkRbA,Coté Sud,"[{'alias': 'french', 'title': 'French'}, {'alias': 'italian', 'title': 'Italian'}]",968.0,28 rue Maréchal Fayolle,46.0,4.5
596,,43.3169975726422,5.40710806846619,,WZTiXu82gQ8dMlTZIJsbUg,Capo Rosso,"[{'alias': 'french', 'title': 'French'}]",227.0,30 bd Verd,14.0,4.0
597,,43.307536,5.402811,,i5msKAStsaRnliDkj4fgww,Liban Express,"[{'alias': 'lebanese', 'title': 'Lebanese'}]",1007.0,12 boulevard de Roux,10.0,4.5
598,,43.315776,5.39864,,2vB1EaigawOJsblnrhQdXA,Restaurant des Chutes Lavie,"[{'alias': 'french', 'title': 'French'}]",470.0,45 avenue des Chutes Lavie,17.0,4.0
599,,43.3167970445435,5.40463521982721,,rJZ4q26xZcRI63Do-knmeA,Subway,"[{'alias': 'sandwiches', 'title': 'Sandwiches'}]",37.0,62 ave de Saint-Just,1.0,3.0
600,,43.3166672,5.4053222,,O7R7VtyXGkjYn4uzmwcrdw,Bella Italia,"[{'alias': 'hotdogs', 'title': 'Fast Food'}]",78.0,4 Boulevard Lambert,2.0,4.0
601,,43.31263,5.41204,,GW_3IHjbK1NFNv39VZh05g,La Cabane à Pizzas,"[{'alias': 'pizza', 'title': 'Pizza'}]",768.0,208 avenue Montolivet,5.0,4.5
602,,43.3178422,5.4061173,,4DmlNWvcyRZcS-0xxm-q3g,Brasserie Le Matys,"[{'alias': 'restaurants', 'title': 'Restaurants'}, {'alias': 'nightlife', 'title': 'Nightlife'}]",203.0,3 Rue Alphonse Daudet,1.0,4.0
603,,43.3083401,5.40016,,inAqpa84d0Eb5-roUjAThg,La Table de Guy Bistro Créole,"[{'alias': 'caribbean', 'title': 'Caribbean'}, {'alias': 'tapasmallplates', 'title': 'Tapas/Small Plates'}]",971.0,145 ave des Chartreux,10.0,3.0
604,,43.3121,5.40277,,NWzbymbwSy_maAF_D7kr_Q,Pizza Première,"[{'alias': 'pizza', 'title': 'Pizza'}, {'alias': 'fooddeliveryservices', 'title': 'Food Delivery Services'}]",526.0,36 boulevard de la Fédération,1.0,4.0
605,,43.3083197,5.4029428,,PYNhSs8sv25UnB2MuKpM5w,Le Number One,"[{'alias': 'sportsbars', 'title': 'Sports Bars'}, {'alias': 'brasseries', 'title': 'Brasseries'}]",919.0,1 Boulevard Banon,1.0,5.0
606,,43.296302648832,5.37139641627038,,B9EDlS5y7zaHUVRFTE5PeA,La Caravelle,"[{'alias': 'bars', 'title': 'Bars'}, {'alias': 'provencal', 'title': 'Provencal'}]",53.0,34 quai du Port,262.0,4.0
607,,43.2977099227985,5.36929702883606,,_HmsDLwMLKrbmndlNQ7ZoQ,Vinonéo,"[{'alias': 'french', 'title': 'French'}, {'alias': 'wine_bars', 'title': 'Wine Bars'}, {'alias': 'mediterranean', 'title': 'Mediterranean'}]",212.0,6 place Daviel,56.0,4.5
608,,43.296061,5.36774,,hzeFLbv6RsGfVB3C9MJ5Nw,Carmine,"[{'alias': 'italian', 'title': 'Italian'}]",245.0,134 quai du Port,54.0,4.0
609,,43.2965,5.373197,,m5ERA2E2b07Dm5DSwj_cKA,Miramar,"[{'alias': 'seafood', 'title': 'Seafood'}]",200.0,12 quai du Port,143.0,3.5
610,,43.2934859745132,5.37051770435187,,x1HzS7UZj3v1bMzDcY50vQ,La Nautique,"[{'alias': 'french', 'title': 'French'}, {'alias': 'seafood', 'title': 'Seafood'}, {'alias': 'mediterranean', 'title': 'Mediterranean'}]",294.0,20 quai de Rive Neuve,60.0,4.0
611,,43.2963958166187,5.37366704830174,,CSFc59c3-zGbD-cwFa1pSA,Une Table au Sud,"[{'alias': 'mediterranean', 'title': 'Mediterranean'}]",236.0,1 Rue République,48.0,4.0
612,,43.295589,5.379063,,EfMabFwgjmWoUibT1DMMzw,Sauveur,"[{'alias': 'pizza', 'title': 'Pizza'}]",673.0,10 rue d'Aubagne,132.0,4.5
613,,43.29689,5.36919,,FHHCjx0O5Gq0udJS1reGcA,Le Café des Épices,"[{'alias': 'french', 'title': 'French'}]",160.0,4 rue du Lacydon,112.0,3.5
614,,43.2926558819198,5.37180240555722,,gMbdTQCBPjp7mDfWJehHmQ,Le Bon Burger,"[{'alias': 'burgers', 'title': 'Burgers'}, {'alias': 'tradamerican', 'title': 'American'}]",395.0,24 place aux Huiles,36.0,4.5
615,,43.29621,5.37132,,tpya1qrNPfCnSDFE53A6sQ,Le Bocal,"[{'alias': 'french', 'title': 'French'}]",45.0,58 Quai Du Port,23.0,4.0
616,,43.295589,5.379063,,EfMabFwgjmWoUibT1DMMzw,Sauveur,"[{'alias': 'pizza', 'title': 'Pizza'}]",176.0,10 rue d'Aubagne,132.0,4.5
617,,43.2963958166187,5.37366704830174,,CSFc59c3-zGbD-cwFa1pSA,Une Table au Sud,"[{'alias': 'mediterranean', 'title': 'Mediterranean'}]",277.0,1 Rue République,48.0,4.0
618,,43.29612,5.37825,,7av0DefYvzlnjg7dPJgirg,Toinou,"[{'alias': 'seafood', 'title': 'Seafood'}, {'alias': 'seafoodmarkets', 'title': 'Seafood Markets'}]",92.0,3 cours Saint-Louis,217.0,3.5
619,,43.296495,5.3742438,,DEHMfZxRq9HXrLx1GEnGfg,La Kahena,"[{'alias': 'arabian', 'title': 'Arabic'}, {'alias': 'mediterranean', 'title': 'Mediterranean'}]",232.0,2 rue de la République,68.0,3.5
620,,43.296302648832,5.37139641627038,,B9EDlS5y7zaHUVRFTE5PeA,La Caravelle,"[{'alias': 'bars', 'title': 'Bars'}, {'alias': 'provencal', 'title': 'Provencal'}]",461.0,34 quai du Port,262.0,4.0
621,,43.293379,5.375462,,VO2Gk3YV0vMLEkc3jg0_BA,Grumpy Cakes,"[{'alias': 'tea', 'title': 'Tea Rooms'}, {'alias': 'desserts', 'title': 'Desserts'}, {'alias': 'salad', 'title': 'Salad'}]",346.0,12 rue Corneille,35.0,4.5
622,,43.2965,5.373197,,m5ERA2E2b07Dm5DSwj_cKA,Miramar,"[{'alias': 'seafood', 'title': 'Seafood'}]",316.0,12 quai du Port,143.0,3.5
623,,43.2969,5.37363,,i1aD9BdALxnbeacX1j3Utw,Déjeuner en Ville,"[{'alias': 'bistros', 'title': 'Bistros'}]",289.0,5 rue de la République,21.0,4.5
624,,43.29952,5.37744,,nrxYjkyHSklYcUv4VaNnfg,Le Grain de Sable,"[{'alias': 'vegetarian', 'title': 'Vegetarian'}, {'alias': 'french', 'title': 'French'}]",363.0,34 Rue Baignoir,47.0,4.5
625,,43.293307,5.375469,,uLqZhed6FOI-Yxmdi-W2tA,Le Petit Flore,"[{'alias': 'mediterranean', 'title': 'Mediterranean'}, {'alias': 'french', 'title': 'French'}]",354.0,14 rue Corneille,24.0,5.0
626,,43.295589,5.379063,,EfMabFwgjmWoUibT1DMMzw,Sauveur,"[{'alias': 'pizza', 'title': 'Pizza'}]",762.0,10 rue d'Aubagne,132.0,4.5
627,,43.296302648832,5.37139641627038,,B9EDlS5y7zaHUVRFTE5PeA,La Caravelle,"[{'alias': 'bars', 'title': 'Bars'}, {'alias': 'provencal', 'title': 'Provencal'}]",611.0,34 quai du Port,262.0,4.0
628,,43.29952,5.37744,,nrxYjkyHSklYcUv4VaNnfg,Le Grain de Sable,"[{'alias': 'vegetarian', 'title': 'Vegetarian'}, {'alias': 'french', 'title': 'French'}]",341.0,34 Rue Baignoir,47.0,4.5
629,,43.2972899,5.38546,,wwcX2d_9rQmz9OzUQEVFHw,Le Cercle Rouge,"[{'alias': 'tapas', 'title': 'Tapas Bars'}, {'alias': 'corsican', 'title': 'Corsican'}, {'alias': 'cocktailbars', 'title': 'Cocktail Bars'}]",1026.0,41 rue Adolphe Thiers,65.0,4.5
630,,43.2977099227985,5.36929702883606,,_HmsDLwMLKrbmndlNQ7ZoQ,Vinonéo,"[{'alias': 'french', 'title': 'French'}, {'alias': 'wine_bars', 'title': 'Wine Bars'}, {'alias': 'mediterranean', 'title': 'Mediterranean'}]",569.0,6 place Daviel,56.0,4.5
631,,43.29424,5.384759,,qzI9sQ6vToMDi_RGk9W13w,Ummagumma,"[{'alias': 'french', 'title': 'French'}, {'alias': 'tapasmallplates', 'title': 'Tapas/Small Plates'}]",1174.0,26 rue des Trois Rois,78.0,4.5
632,,43.2926558819198,5.37180240555722,,gMbdTQCBPjp7mDfWJehHmQ,Le Bon Burger,"[{'alias': 'burgers', 'title': 'Burgers'}, {'alias': 'tradamerican', 'title': 'American'}]",993.0,24 place aux Huiles,36.0,4.5
633,,43.2963958166187,5.37366704830174,,CSFc59c3-zGbD-cwFa1pSA,Une Table au Sud,"[{'alias': 'mediterranean', 'title': 'Mediterranean'}]",560.0,1 Rue République,48.0,4.0
634,,43.29443,5.38383,,4q-slQPktkv3bVPV4qrATg,Café Vian,"[{'alias': 'wine_bars', 'title': 'Wine Bars'}, {'alias': 'provencal', 'title': 'Provencal'}, {'alias': 'bbq', 'title': 'Barbeque'}]",1104.0,12 rue Vian,119.0,4.5
635,,43.29405,5.38541,,8aaP45FDUXeJhXKyPIvSfg,Casa No Name,"[{'alias': 'french', 'title': 'French'}, {'alias': 'mediterranean', 'title': 'Mediterranean'}]",1227.0,7 rue André Poggioli,30.0,4.5
636,,43.2879836595775,5.37209987640381,,eC-02pllo4M2SyMtECq7KQ,Carry Nation,"[{'alias': 'cocktailbars', 'title': 'Cocktail Bars'}]",177.0,,43.0,4.5
637,,43.28937,5.37619,,0GfK46csa2y4fYoGHvuiIg,Treize en Vue,"[{'alias': 'bistros', 'title': 'Bistros'}, {'alias': 'french', 'title': 'French'}]",331.0,40 rue de Breteuil,45.0,4.5
638,,43.289185,5.372774,,M4thls5A4dFfzJSF9_A3Pg,Sushi Street Café,"[{'alias': 'sushi', 'title': 'Sushi Bars'}, {'alias': 'japanese', 'title': 'Japanese'}]",260.0,24 boulevard Notre Dame,101.0,4.0
639,,43.286314,5.377496,,5qVjvTamS1nztj-Nb-qpRA,Wadina,"[{'alias': 'lebanese', 'title': 'Lebanese'}, {'alias': 'halal', 'title': 'Halal'}, {'alias': 'vegetarian', 'title': 'Vegetarian'}]",308.0,133 Rue Breteuil,94.0,4.5
640,,43.295589,5.379063,,EfMabFwgjmWoUibT1DMMzw,Sauveur,"[{'alias': 'pizza', 'title': 'Pizza'}]",1050.0,10 rue d'Aubagne,132.0,4.5
641,,43.286944,5.374085,,DChQSCzilMIaA0LWn2-yGA,Spok Notre Dame,"[{'alias': 'hotdogs', 'title': 'Fast Food'}]",24.0,67 bd Notre Dame,8.0,4.5
642,,43.2876251243622,5.37909351534427,,4sKk3i7CNMb77JU9LdtCKg,L'Escapade Marseillaise,"[{'alias': 'mediterranean', 'title': 'Mediterranean'}]",436.0,134 rue Paradis,58.0,4.5
643,,43.283955,5.371235,,tltXVzIZGoS1rw5JeBdeww,Basilique Notre-Dame de la Garde,"[{'alias': 'churches', 'title': 'Churches'}, {'alias': 'landmarks', 'title': 'Landmarks & Historical Buildings'}]",392.0,Rue Fort du Sanctuaire,197.0,4.5
644,,43.29022,5.37866,,KsagIFKCpWr6X_hq9H_mKQ,Le Café de la Banque,"[{'alias': 'brasseries', 'title': 'Brasseries'}, {'alias': 'bars', 'title': 'Bars'}, {'alias': 'breakfast_brunch', 'title': 'Breakfast & Brunch'}]",537.0,24 bd Paul Peytral,65.0,4.5
645,,43.2886423,5.376501,,KQT9vFVa9Yfy5KcC58jZSA,Le Bistrot Asiatique,"[{'alias': 'panasian', 'title': 'Pan Asian'}]",288.0,54 rue Breteuil,12.0,4.5
646,,43.29424,5.384759,,qzI9sQ6vToMDi_RGk9W13w,Ummagumma,"[{'alias': 'french', 'title': 'French'}, {'alias': 'tapasmallplates', 'title': 'Tapas/Small Plates'}]",124.0,26 rue des Trois Rois,78.0,4.5
647,,43.2917571,5.3842254,,KgYoPVXM50ZRhWeDl4mlMA,Le Corto,"[{'alias': 'tapasmallplates', 'title': 'Tapas/Small Plates'}, {'alias': 'french', 'title': 'French'}, {'alias': 'mediterranean', 'title': 'Mediterranean'}]",315.0,24 place Notre-Dame du Mont,65.0,4.5
648,,43.29405,5.38541,,8aaP45FDUXeJhXKyPIvSfg,Casa No Name,"[{'alias': 'french', 'title': 'French'}, {'alias': 'mediterranean', 'title': 'Mediterranean'}]",72.0,7 rue André Poggioli,30.0,4.5
649,,43.29443,5.38383,,4q-slQPktkv3bVPV4qrATg,Café Vian,"[{'alias': 'wine_bars', 'title': 'Wine Bars'}, {'alias': 'provencal', 'title': 'Provencal'}, {'alias': 'bbq', 'title': 'Barbeque'}]",205.0,12 rue Vian,119.0,4.5
650,,43.2938186,5.3849285,,gQE8ilVDY7JmgQMgv9lomg,WAAW,"[{'alias': 'eventplanning', 'title': 'Party & Event Planning'}, {'alias': 'bistros', 'title': 'Bistros'}]",116.0,17 rue Pastoret,29.0,4.0
651,,43.2972899,5.38546,,wwcX2d_9rQmz9OzUQEVFHw,Le Cercle Rouge,"[{'alias': 'tapas', 'title': 'Tapas Bars'}, {'alias': 'corsican', 'title': 'Corsican'}, {'alias': 'cocktailbars', 'title': 'Cocktail Bars'}]",354.0,41 rue Adolphe Thiers,65.0,4.5
652,,43.2937810155134,5.38633754860625,,CmHI3dv9Ek4ns9KY-mxM5A,Chez Ida,"[{'alias': 'french', 'title': 'French'}, {'alias': 'karaoke', 'title': 'Karaoke'}]",42.0,7 Rue Ferdinand Rey,31.0,4.5
653,,43.295589,5.379063,,EfMabFwgjmWoUibT1DMMzw,Sauveur,"[{'alias': 'pizza', 'title': 'Pizza'}]",606.0,10 rue d'Aubagne,132.0,4.5
654,,43.29412,5.38475,,KjP62bxxlqEpNv-SxBxW6Q,O'Pakistan,"[{'alias': 'pakistani', 'title': 'Pakistani'}, {'alias': 'indpak', 'title': 'Indian'}]",124.0,11 rue des Trois Rois,186.0,4.0
655,,43.29282,5.3850698,,esjrwV07jbs08weWPhgVBA,Le Pavillon Thaï,"[{'alias': 'thai', 'title': 'Thai'}, {'alias': 'vietnamese', 'title': 'Vietnamese'}, {'alias': 'panasian', 'title': 'Pan Asian'}]",184.0,28 rue des 3 Frères Barthélemy,166.0,4.0
656,,43.286314,5.377496,,5qVjvTamS1nztj-Nb-qpRA,Wadina,"[{'alias': 'lebanese', 'title': 'Lebanese'}, {'alias': 'halal', 'title': 'Halal'}, {'alias': 'vegetarian', 'title': 'Vegetarian'}]",324.0,133 Rue Breteuil,94.0,4.5
657,,43.283955,5.371235,,tltXVzIZGoS1rw5JeBdeww,Basilique Notre-Dame de la Garde,"[{'alias': 'churches', 'title': 'Churches'}, {'alias': 'landmarks', 'title': 'Landmarks & Historical Buildings'}]",309.0,Rue Fort du Sanctuaire,197.0,4.5
658,,43.28937,5.37619,,0GfK46csa2y4fYoGHvuiIg,Treize en Vue,"[{'alias': 'bistros', 'title': 'Bistros'}, {'alias': 'french', 'title': 'French'}]",604.0,40 rue de Breteuil,45.0,4.5
659,,43.2876251243622,5.37909351534427,,4sKk3i7CNMb77JU9LdtCKg,L'Escapade Marseillaise,"[{'alias': 'mediterranean', 'title': 'Mediterranean'}]",518.0,134 rue Paradis,58.0,4.5
